station_id,name,lat,lon
213688169,Benjamin Godard - Victor Hugo,48.865983,2.275725
19179944124,Hôpital Mondor,48.798922,2.453745
18795078746,Charcot - Benfleet,48.87837,2.440524
36255,Toudouze - Clauzel,48.879296,2.33736
251039991,Cassini - Denfert-Rochereau,48.837526,2.336035
85002689,Jourdan - Stade Charléty,48.819428,2.343335
2515829865,Basilique,48.936269,2.358867
516709288,Charonne - Robert et Sonia Delaunay,48.855908,2.392571
120827885,Messine - Place Du Pérou,48.875448,2.315508
37874517,Saint-Sulpice,48.851654,2.330808
210565680,Vaneau - Sèvres,48.848563,2.320422
210403080,Lacépède - Monge,48.843893,2.351966
210561800,Saint-Romain - Cherche-Midi,48.847082,2.321375
209063434,André Karman - République,48.910399,2.385136
94555589,Pierre et Marie Curie - Maurice Thorez,48.815802,2.376805
501862076,Place Nelson Mandela,48.862453,2.196167
17486274358,Jean Rostand - Paul Vaillant Couturier,48.908168,2.45306
19331959862,Bas du Mont-Mesly,48.779751,2.460837
210566542,Square Boucicaut,48.851296,2.325062
85043758,Guersant - Gouvion-Saint-Cyr,48.882878,2.287667
82405965,Froment - Bréguet,48.857041,2.372895
213682736,Morillons - Dantzig,48.833101,2.29938
54000559,Jouffroy d'Abbans - Wagram,48.881973,2.301132
37815204,Mairie du 12ème,48.840855,2.387555
210405211,Beaux-Arts - Bonaparte,48.856452,2.334852
16560752067,Bracion - Périphérique,48.826104,2.300455
66491398,Le Brun - Gobelins,48.835093,2.353468
20364431108,Place des Marseillais,48.826606,2.405912
210397939,Thouin - Cardinal Lemoine,48.845047,2.349465
43195240,Silly - Galliéni,48.835584,2.23255
54000581,Croulebarde - Corvisart,48.830982,2.348165
13105968,Le Brix et Mesmin - Jourdan,48.822341,2.327862
653208733,Romainville - Vaillant-Couturier,48.86785,2.446748
78348185,Mairie de Clichy,48.903654,2.305935
54000536,Saint-Fiacre - Poissonière,48.870829,2.345921
129094535,Porte de Saint-Ouen - Bessières,48.897922,2.328515
54000612,Cambrai - Benjamin Constant,48.895947,2.381134
80101533,Chazelles - Courcelles ,48.879407,2.303446
17486876370,Moulin de Pierre - Abbé Grégoire,48.822036,2.275464
599135701,Ramponeau - Belleville,48.871031,2.379057
102747146,Lagny - Victor Basch,48.848841,2.426325
2515403527,Saint-Cloud - Hippodrome,48.857721,2.254911
653132534,Louis Lejeune - Barbès,48.818074,2.326701
506455295,Général Martial Valin - Pont du Garigliano,48.838231,2.270506
1057149522,Rond-point du Dr Albert Schweitzer,48.789809,2.314394
653197324,Théâtre des Amandiers - Palais des sports,48.892649,2.213694
49474389,Artois - Berri,48.873935,2.306426
14813797734,Raspail Barbès,48.852995,2.424739
88230992,De Toqueville - Terrasse,48.882428,2.314002
499303158,Jules Guesde - Pont du Port à l'Anglais,48.796288,2.417212
1057387136,8 Mai 1945 - 10 Juillet 1940,48.784567,2.397904
27415302,Michel-Ange - Parent de Rosan,48.84058,2.258412
27414512,Caire - Dussoubs,48.867853,2.349364
210580039,Tour d'Auvergne - Rodier,48.879161,2.343698
128940135,Marceau - Chaillot,48.868834,2.298603
35149611,Liard - Amiral Mouchez,48.821417,2.342167
1057296253,Regnault - Patay,48.824358,2.377065
576188379,Vigée-Lebrun - Anselme Payen,48.838684,2.311042
2515085147,Italie - Tolbiac,48.825572,2.357617
19331981332,Sarrazins - Saussure,48.769627,2.471784
129107656,Félix Ziem - Armand Gauthier,48.889496,2.333394
210574471,Abbeville - Faubourg Poissonnière,48.879223,2.349147
1057228658,Youri Gagarine - Karl Marx,48.784485,2.359084
230873471,Octave Feuillet - Albéric Magnard,48.861069,2.273028
17278902806,Rouget de L'isle - Watteau,48.778193,2.396302
129164969,Place Jean-Spire-Lemaître,48.846843,2.452062
129004826,Bellefond - Poissonnière,48.877599,2.348464
518825709,Jean Oestreicher - Porte de Champerret,48.886556,2.28864
128930462,Square Louis XVI,48.873204,2.323659
54000565,Granges aux Belles,48.876137,2.368084
210586093,Dunkerque - Rocroy,48.880726,2.351464
369644630,Gare de l'Est - Faubourg-Saint-Martin,48.875643,2.359459
214114469,Gare de Nogent-le-Perreux,48.838426,2.493693
55927887,Gabriel Lamé,48.835121,2.385535
323616530,Quai de l'Horloge - Pont Neuf,48.857059,2.341798
72765603,Boulangers - Cardinal Lemoine,48.84629,2.35215
16659953198,Verger - Colonel Guichard,48.816377,2.267038
35196898,Gare d'Austerlitz - Quai Saint-Bernard,48.84369,2.365716
129025451,Douai - Bruxelles,48.883208,2.330845
128920403,Gare Saint-Lazare - Isly,48.874778,2.326516
1062192012,Gare Rosny-Bois-Perrier,48.88115,2.480437
521393180,Porte Pouchet-Bessières,48.897877,2.323063
128887067,Ségur - d'Estrées,48.85142,2.309704
7254,Gay Lussac - Saint-Jacques,48.84473,2.341924
20637036701,Jean Jaurès - Bouret,48.883145,2.371236
128989986,Place Georges Guillaumin,48.87475,2.301771
39799329,Faubourg Montmartre - La Fayette,48.875255,2.340854
210582921,Boudreau - Auber,48.87219,2.329423
208795867,Ambroise Rendu - Porte Brunet,48.883667,2.395733
82567101,Château - République,48.862924,2.415504
457813746,Henri Barbusse - Stalingrad,48.814184,2.287286
50191171,Thionville - Ourcq,48.889176,2.383365
129014600,Rossini - Laffitte,48.873346,2.337981
129087587,Legendre - Clichy,48.888962,2.322529
213693511,Quai de la Seine,48.884492,2.370394
3906153622,Argenteuil - Voltaire,48.918649,2.281411
66491397,Gare de Lyon - Place Louis Armand,48.845515,2.37265
20512737633,Lieutenant Colonel Prudhon - Repos,48.946801,2.238073
2515995748,Pesaro - Préfecture,48.89577,2.223908
27363162,Ranelagh - Mozart,48.855444,2.270442
129021753,Moncey - Blanche,48.880066,2.331081
210740080,Gare du Nord - Hôpital Lariboisière,48.881949,2.352339
3906094706,Redoute - Les Courtilles,48.929867,2.28367
80216231,Belidor - Gouvion-Saint-Cyr,48.880222,2.285468
336511521,Place de Rhin et Danube,48.881928,2.392587
82562556,Exelmans - Versailles,48.840975,2.26439
129048000,Saint-Maur - Roquette,48.858689,2.383554
1062250686,11 Novembre 1918 - 8 Mai 1945,48.808895,2.538242
129043651,Roquette - Thiéré,48.855079,2.373369
27363489,Claude Decaen - Cannebière,48.837614,2.397254
39296638,Berri - Haussmann,48.874746,2.308295
813544903,Amelot - Saint-Sébastien,48.861142,2.3678
205938683,Delphine Seyrig - Général Leclerc,48.893924,2.397903
210399835,Panthéon - Valette,48.847021,2.346498
230877798,Chartres - La Charbonnière,48.88476,2.353466
101763163,Desaix - Edgar Faure,48.852805,2.293077
213688462,Sablons - Georges Mandel,48.863875,2.28189
27414578,Notre-Dame-des-Champs - Stanislas,48.844799,2.329338
54000569,Saint-Ambroise - Parmentier,48.862148,2.377235
508042092,Pyramide - Ecole du Breuil ,48.82238,2.458687
42603855,Liège - Moscou,48.879543,2.326463
818302209,Mairie de Montreuil,48.861315,2.440614
1057392676,Rouget de Lisle,48.764615,2.407119
129034587,Récollets - Square Villemin,48.875035,2.359801
261987383,Place Du Général De Gaulle,48.868759,2.432993
314829539,Charles de Gaulle - Beauté,48.836496,2.479563
1057324291,Cimetière de Montrouge,48.821467,2.321579
583539396,Anatole France - President Roosevelt,48.915516,2.38141
101753100,Henry Farman,48.833724,2.271385
81081358,Pajol - Place Herbert,48.892783,2.36356
209057581,Gabriel Péri - Francisco Ferrer,48.886337,2.407339
3906335682,Roger Salengro - Fontainebleau,48.814549,2.361166
586539770,Marne - Germain Dardan,48.812175,2.303502
597245295,Concorde - Stalingrad,48.798584,2.38213
235513935,Carducci - Place Hannah Arendt,48.877437,2.386074
102324803,Pyrénées - Emmery,48.872029,2.39186
532054446,Richard Lenoir - Republique,48.866718,2.369254
535500589,Hôpital Européen Georges Pompidou,48.837695,2.275374
265464297,Schoelcher - Raspail,48.836817,2.331279
66491385,Fontenay - Libération,48.847803,2.445142
37815993,Mutualité,48.848226,2.350287
13718041,Square Simon Bolivar,48.87509,2.38263
126050442,Pereire - Rennequin,48.883648,2.295245
19495443023,Paul Bodin - Clichy,48.892595,2.31714
828134511,Porte de Vanves,48.828013,2.305688
129060764,Victor Hugo - Jeanne Jugan,48.843949,2.415081
596813170,Cimetière de Fontenay-sous-Bois,48.847062,2.478782
596872103,Lucie Aubrac - Fort,48.818145,2.271185
129067920,Mouton Duvernet - Général Leclerc,48.831633,2.329312
98187918,Lobau - Hôtel de Ville,48.856212,2.353254
88140066,Rocher - Laborde,48.875902,2.322616
213683101,Lecourbe - Jean Maridor,48.837964,2.287739
213684750,Grenelle - Violet,48.84993,2.294612
2515049357,Erasme - Ulm,48.842644,2.344595
27364743,Marc Sangnier - Porte de Vanves,48.825219,2.310712
102314792,Etienne Jodelle - Saint Ouen,48.88794,2.326124
35447568,Guy Môquet - Etienne Dolet,48.81527,2.298078
583178525,Boissière - Etienne Dolet,48.876111,2.467731
2514995690,Chabanais - Petits Champs,48.867037,2.336716
66491402,Marcadet - Barbès,48.890451,2.349057
82387816,Bertie Albrecht - Hoche,48.87614,2.301303
213685090,Cevennes - Bergers,48.842408,2.281038
301841024,Molière - République,48.811116,2.314574
213679512,Sibelle - Alésia,48.826702,2.338498
66491389,Place de la Reine Astrid,48.864921,2.302549
129038848,Enghien - Faubourg Poissonnière,48.87242,2.348395
102323152,Manin - Carrières d'Amérique,48.884672,2.39197
17581042048,Place de la Porte de Champeret,48.886062,2.2917
230952057,Place Marcel Cachin,48.814114,2.390908
85147829,Hôtel de Ville de Boulogne Billancourt,48.834959,2.24168
128932790,Arsène Houssaye - Champs-Elysées,48.873409,2.29779
20636368032,Victor Cousin - Cujas,48.84791,2.34249
213681356,David Weill - Parc Montsouris,48.821092,2.333726
2515351285,Saint Lambert - Blomet,48.836591,2.293056
213685514,Place Robert Guillemard,48.836192,2.281127
102329800,Marcelin Berthelot,48.841547,2.233162
572566600,Edouard Tremblay - Julian Grimaux,48.781384,2.372351
54000625,Repos - Cimetière du Père Lachaise,48.859359,2.389613
588452142,Hoche - Jean Lolive,48.891102,2.402844
129132870,Nationale - Place Jules Guesde,48.82754,2.241605
620403530,Gabriel Péri - Danielle Casanova,48.790114,2.402578
66491378,Lakanal - Commerce,48.844425,2.294059
41610121,Censier - Jardin des Plantes,48.841072,2.355475
1765749389,Karl Marx,48.784528,2.364667
611152693,Tertres - Fontaine,48.787554,2.306236
235241110,Gare Rer de Fontenay sous Bois,48.843628,2.463047
613737748,Raspail - Manufacture des Oeillets,48.809446,2.390301
1062671597,Cossonnerie - Sébastopol,48.861327,2.34942
245187072,Louis Lumière - Porte de Bagnolet,48.864311,2.410521
463297497,Marcelle - Thalie,48.883546,2.413788
213875650,Henri Ste-Claire Déville - Paul Héroult,48.892663,2.172411
129144878,Paris - Emile Zola,48.854898,2.418669
27415665,Jean Jaurès - Salvador Allende,48.821476,2.302658
593238093,Victoire - Chaussée d'Antin,48.875066,2.331674
13356269,Assas - Rennes,48.849208,2.328515
41498023,Oberkampf - République,48.865316,2.376115
20431005501,Quai des Célestins - Henri IV,48.851291,2.362439
128841079,Cambon - Rivoli,48.866143,2.32518
37791,Richard Lenoir - Jean-Pierre Timbaud,48.865804,2.369337
50156117,Legendre - Dulong,48.885325,2.316424
210744286,Chemin Vert - Saint-Maur,48.861125,2.381299
213992316,Square du Théâtre du Garde-Chasse,48.881287,2.42012
213694482,Botzaris - Parc des Buttes Chaumont,48.877951,2.381464
235599121,Général De Gaulle - Alouette,48.839109,2.417566
462875227,Jules Guesde - Alsace,48.890566,2.295078
101743895,Joseph Liouville - Croix Nivert,48.844835,2.297508
213691848,Place Madeleine Daniélou,48.883498,2.282015
129011497,Rochechouart lamartine,48.87672,2.344393
76199461,Championnet - Vauvenargues,48.894019,2.331987
54000601,Jean-François Lépine - Stephenson,48.886115,2.356856
213691137,Carnot - Général Lanrezac,48.875444,2.293824
549876068,Villette - Belleville,48.872688,2.376461
1057774603,Marie-Georges Picquart - Pereire,48.888637,2.311171
82550543,Place de Barcelone - Mirabeau,48.847623,2.273566
102749572,Gare RER de Vincennes,48.847563,2.433383
390212609,Théophile Gautier - François Millet,48.850348,2.27303
102338493,Larmeroux - Baudelaire,48.81694,2.280989
15462236,Galilée - Kléber,48.867412,2.290781
27362896,Beffroy,48.886591,2.261395
39254792,Mairie du 11ème,48.858925,2.378976
63498079,Marché Secrétan,48.881255,2.373463
101024234,Quai Panhard et Levassor,48.828375,2.384274
97677210,Parmentier - République,48.864495,2.375012
102331767,Victor Hugo - Galliéni,48.83802,2.246085
875078767,Lieutenant Chauré - Etienne Marey,48.867462,2.405971
224256188,Beaujon - Wagram,48.875352,2.296442
1558958733,Arche - Léonard de Vinci,48.89791,2.238372
2515802454,Charles de Gaulle - Sablonville,48.879919,2.276377
648227675,Auguste Cain - Jean Moulin,48.82577,2.321042
1062206433,Chemin Vert - Fraternité,48.877141,2.446157
129032910,Marseille - Beaurepaire,48.871624,2.363927
54001024,Parmentier - Abel Rabaud,48.869213,2.371689
94250567,Mairie d'Ivry-sur-Seine,48.810571,2.384283
129078200,Parc Georges Brassens - Brancion,48.832278,2.302257
649888071,Place Paul Eluard,48.767204,2.414498
82563707,Exelmans - Michel-Ange,48.843095,2.259777
129143598,Pierret - Madrid,48.882977,2.260126
213690847,Reims - Raymond Pitet,48.8888,2.296319
102333275,Saint-Vincent - Verdun,48.819212,2.254008
640629438,Aristide Briand - Gare de Bagneux,48.793873,2.321149
27363362,Seine - Flandre,48.886786,2.374619
237624030,Mathurins - Auber,48.872989,2.329498
6399,Hautpoul - Jean Jaurès,48.886394,2.386541
213957917,Wilson - Métallurgie,48.909423,2.358444
54000626,Madame de Sanzillon - Mozart,48.903798,2.31874
210746090,Grand Prieuré - Crussol,48.864661,2.369227
18880379814,Leroy des Barres - Médiathèque,48.928254,2.368172
27414841,Square d'Anvers,48.882633,2.344884
53999465,Place du Palais Royal,48.862383,2.338482
42566291,Miromesnil - La Boétie,48.873722,2.315848
82253759,Mairie du 7ème,48.857797,2.319266
54000577,Arago - Glacière,48.834861,2.344577
19495480499,Prague - Théophile Roussel,48.850331,2.375822
213702608,Boyer - Ménilmontant,48.868895,2.391982
54000609,Laumière - Petit,48.884674,2.380039
128986726,Boétie - Ponthieu,48.871417,2.307679
362869414,Hôpital Bégin,48.845717,2.427246
214139374,Gare RER de Gentilly,48.81428,2.341035
17174681330,Quai du docteur Dervaux,48.910482,2.297998
213700358,Villiers de l'Isle Adam - Pyrénées,48.867362,2.396222
66491405,Charonne - Avron,48.851603,2.398403
559507144,Place Jean Ferrat,48.818495,2.374417
653063170,Place de la Porte de Paris,48.930094,2.356404
3906215030,Place Amédée Gordini - Lefebvre,48.830617,2.292063
129151834,Stalingrad - Désiré Chevalier,48.856702,2.445072
55664548,Charonne - Faubourg Saint-Antoine,48.852192,2.374093
4329844165,Tristan Tzara -  Tchaïkovski,48.894902,2.364849
653200142,Hôtel de Ville de Nanterre,48.892372,2.205549
650091839,Victor Hugo - Ecoles,48.80476,2.418037
18660653445,Général Delambre - Prebuard,48.938703,2.223417
42743053,Stephenson - Doudeauville,48.888537,2.356161
213699913,Place de l'Édit de Nantes,48.88879,2.3785
101740379,Boulard - Daguerre,48.834465,2.329339
49859500,Charenton - Diderot,48.846171,2.379307
19006016846,Simon Bolivar - Henri Turot,48.877475,2.373971
647826568,Saint-Germain - Thenard,48.850571,2.347102
100767550,Mairie du 4ème,48.85595,2.356382
20431381973,Henri Barbusse,48.932093,2.398288
213694069,Flandre - Alphonse Karr,48.89465,2.381868
468843711,Saint Georges - d'Aumale,48.877786,2.33743
378626842,Anatole France - Louise Michel,48.888732,2.288158
27414945,Montgallet - Charenton,48.842648,2.386165
2515927759,Stalingrad - Germaine Tailleferre,48.802572,2.378669
205955605,Bienfaisance - Place de Narvik,48.876602,2.312977
933214552,Guynemer - Séverine,48.830917,2.279071
39217683,Alfred Roll - Berthier,48.887809,2.300095
353462947,Richard Wallace - Place du 8 Mai 1945,48.878668,2.242034
1559700274,Square Gilbert Thomain,48.907174,2.26954
66491393,Dupleix - du Guesclin,48.851479,2.29671
1062223873,Ancien Canal - Hélène Brion,48.894848,2.418834
49085250,Departement - Pajol,48.886675,2.361361
66491404,Flandre - Riquet,48.888013,2.37376
66491392,Parmentier - Hôpital Saint-Louis,48.87138,2.369896
2515907297,Pasteur - Gambetta,48.845728,2.423601
66491401,Fragonard - Porte de Clichy,48.894156,2.314389
341388492,Place des Ternes.,48.878439,2.297728
985828965,Place de Verdun,48.820282,2.473775
338762459,Edouard Poisson - Victor Hugo,48.911186,2.379865
323486248,Montgallet - Reuilly,48.844291,2.389648
501318622,Montreuil - Gonnet,48.850501,2.389086
213688824,Faustin Hélie - Desbordes-Valmore,48.859403,2.276522
210090269,Jean Macé - Faidherbe,48.853375,2.382862
54000544,Jussieu - Fossés Saint-Bernard,48.847186,2.353486
66491370,Jacques Callot - Mazarine,48.85528,2.337574
27071684,Porte de Vincennes,48.846454,2.415514
38263504,Place Jacques Madaule,48.823934,2.260692
82337423,Varenne,48.857203,2.315277
20523046082,Porte de la Chapelle - Boulevard Ney,48.900097,2.358601
49403716,Commandant Rivière,48.872933,2.309796
470807791,Jardin d'Acclimatation,48.878772,2.270772
568135465,Paul Vaillant Couturier - Chaptal,48.89348,2.277525
82450803,Square Cambronne,48.847567,2.302569
214102967,Gare de Laplace,48.808932,2.334946
54000597,Bayen - Pereire,48.881804,2.292109
2515658032,Clignancourt - Sofia,48.88512,2.347195
652192395,Route de Sèvres - Porte de Bagatelle,48.87526,2.249416
571923059,Bordier - Félix Faure,48.903908,2.383006
54000635,Félix Faure - Sadi Carnot,48.908121,2.378623
357409723,Place Violet,48.844879,2.290576
1062179194,18 juin 1940 - Buzenval,48.868807,2.185428
1063017616,Mairie de La Garenne Colombes,48.906638,2.246796
378648513,Jean Colly - Tolbiac,48.827817,2.370549
27278603,Porte de la Villette,48.898352,2.38615
13497763,Ouest - Château ,48.836173,2.319392
653042442,Place aux Étoiles,48.918356,2.352343
49807107,Flandrin - Henri Martin,48.864328,2.272417
210747224,Pirogues de Bercy - Libourne,48.832308,2.38637
17992442278,Place du 8 Mai 1945,48.871552,2.202503
52393,Grands Moulins de Pantin,48.897384,2.395999
570185777,Gare de Courbevoie,48.899387,2.250651
473204291,Victor Hugo - Magasins Généraux,48.903281,2.368072
27363103,Porte d'Auteuil,48.847939,2.26084
631773910,Carnot - Pâquerettes,48.795929,2.426184
49368561,Jules Ferry - Faubourg du Temple Paris,48.868397,2.367893
210568512,Assemblée Nationale,48.861411,2.320121
82445192,Gare Montparnasse - René Mouchotte,48.839204,2.320884
85145704,Réunion - Avron,48.852567,2.403928
653062048,Gare du Nord - Place de Valenciennes,48.879089,2.354235
85165045,Place Jean-Baptiste Clément,48.812405,2.361709
475524450,Chanzy - Sud-Est,48.888912,2.195632
653048150,Jussieu - Guy de la Brosse,48.845665,2.355653
244400797,Jean Lolive - Parc Stalingrad,48.892062,2.409174
20531346153,René Boulanger - Lancry,48.868769,2.359875
129001431,Courcelles - Place des Ternes,48.8782,2.299286
653203262,Parc Pierre Lagravère,48.926505,2.23907
406806401,Guichet - Jean Jaurès,48.90517,2.302384
1063035479,Parvis Robert Schuman - Roger Salengro,48.812657,2.192175
54000595,Navier - Epinettes,48.895878,2.322678
82571110,Verdun - Place Henri IV,48.870797,2.2277
217235307,Place Carnot,48.855939,2.441532
82421994,Gare de Bercy,48.839795,2.382607
129086648,Ceinture du Lac Inferieure - Saint-Cloud,48.862181,2.261787
217572769,Anatole France - Jean Lolive,48.894992,2.425376
214298601,Boyer-Barret - Raymond Losserand,48.833299,2.317338
129125489,Piat - Parc de Belleville,48.871956,2.384981
26958435,Square des Saint-Simoniens,48.87018,2.396727
213922790,Champeaux - Gallieni,48.864459,2.416178
37936869,Assas - Vaugirard,48.848274,2.329241
19016722230,Raymond Poincaré - Allée de la Marche,48.838634,2.17241
210748575,Gravelle - Route du Bac,48.824407,2.418455
129119449,Ménilmontant - Pelleport,48.870683,2.39896
6385,Petit - Manin,48.886507,2.393816
214122655,Lagny - Joffre,48.849307,2.41795
129077035,Emeriau - Place de Brazzaville,48.850785,2.287159
15461933,Parc Monceau,48.881078,2.309549
216473073,Tardieu - Chappe,48.884147,2.341845
37521,Petites Ecuries - Faubourg Poissonnière,48.873972,2.348389
216039437,Lamennais - Washington,48.87353,2.303445
985086307,Gare d'Asnières sur Seine,48.906365,2.283507
82458977,Place Falguière,48.8363,2.310446
129103849,Francoeur - Marcadet,48.891041,2.340015
1057009034,Henri Chevreau - Couronnes,48.870332,2.388778
82334007,Pascal - Claude Bernard,48.839062,2.349978
214146056,Vignerons - Minimes,48.841486,2.430793
85008390,Grenelle - Dr Finlay,48.851315,2.29195
43155320,Porte d'Orléans,48.822764,2.324931
221047138,Pierre et Marie Curie - Julien Grimau,48.870714,2.424097
210567545,Raspail - Varenne,48.853148,2.326391
129130397,Pierre Grenier - Pont de Billancourt,48.825802,2.248799
653129412,Vladimir Ilitch Lénine - Andrée Chedid,48.81324,2.331972
419381597,Professeur René Leriche - Général Leclerc ,48.907828,2.307888
54000466,Uzès - Montmartre,48.870791,2.343101
426772876,Ledru-Rollin - Charonne,48.853459,2.377246
653046029,Place Valhubert,48.844183,2.364037
54000548,Quai Voltaire,48.858943,2.331418
27414601,Saint-François-Xavier,48.851545,2.314615
215495494,Batignolles - Place de Clichy,48.883475,2.326493
15308782,Sommerard - Saint-Jacques,48.85031,2.345016
20431134793,Château -République,48.905905,2.253453
74620630,Parc de Belleville - Julien Lacroix,48.870346,2.384221
129091653,Gare de Pont-Cardinet,48.887139,2.314494
129036192,Gare de l'Est - Verdun,48.876156,2.360915
11004671601,Capitaine Glarner - Gabriel Péri,48.90245,2.330481
210754072,Place Jean Delay,48.823316,2.354336
419991048,Pont de Levallois-bécon ,48.898418,2.279131
2820744873,Pierre Larousse - Raymond Losserand,48.830596,2.311918
213676825,Pitié-Salpêtrière,48.837488,2.365214
20636558756,Dunkerque - Maubeuge,48.880433,2.35289
15299574,Charles Delescluze,48.852422,2.380632
41566122,Vasco de Gama,48.836718,2.283664
963786819,Jonquoy - Didot,48.828905,2.316481
427678168,Lucien Sampaix - Récollets,48.87433,2.362123
976762284,Place du Général de Gaulle,48.852529,2.487733
82421013,Charenton - Place du Col Bourgoin,48.844867,2.382579
434419150,Bara - Henri Farman,48.833218,2.267757
220502135,Porte Dorée,48.835434,2.407713
129114993,Belleville - Porte des Lilas,48.876604,2.40477
220726050,Mézières - Rennes ,48.850235,2.330382
254224239,Place Adolphe Cherioux - Vaugirard,48.839594,2.301066
85118872,Indre - Prairies,48.862544,2.40329
100859941,Raspail - Bac,48.855629,2.32566
224589573,Michelet - Assas,48.842742,2.335021
252339799,Edouard Vaillant - Paul-Adolphe Souriau,48.834846,2.247946
129134084,Morice - Général Leclerc,48.902455,2.312893
1805401614,Sèvres-Gallieni,48.837809,2.228152
20432939844,Labouret - Saint-Denis,48.924067,2.253916
129116697,Tanger - Place du Maroc,48.886252,2.36893
977409509,Vincennes - Douy-Delcupe,48.854937,2.436049
653055049,Place du Cornillon - Stade de France,48.925407,2.364443
221041655,Porte de Clignancourt.,48.897488,2.343996
1057769632,Porte de Saint-Ouen - Henri Huchard,48.898708,2.329536
1333959209,Génie - Mozart,48.794902,2.373418
213690256,Place du Maréchal Juin - Péreire,48.885263,2.298286
120564786,Filles Saint-Thomas - Place de la Bourse,48.8689,2.339754
632007124,Lucie Aubrac - Franklin,48.862239,2.443586
977206088,Hôtel de Ville d'Argenteuil,48.946504,2.24964
213868408,Gare Routière de Saint Cloud,48.842882,2.222245
129061615,Primo Levi - Frigos,48.830948,2.379654
224598098,Dunois - Clisson,48.832294,2.367452
82508970,Verdun - Adrien Damalix,48.822233,2.421533
653055097,Milton - Manuel,48.878249,2.341181
27246227,Edouard Pailleron - Simon Bolivar ,48.879799,2.374839
63297,Eglise d'Auteuil,48.847498,2.268484
95927849,Jean Jaurès - Jean Baptiste Clément ,48.845763,2.236965
102341385,Château - Bineau,48.890404,2.270106
54000605,Mairie du 18ème,48.892939,2.344551
979059925,Bridaine - Lamandé,48.886207,2.320624
6512,Porte de Ménilmontant,48.869154,2.409322
27363323,Laffitte - Italiens,48.871816,2.337202
10968855,Colonel Monteil - Brune,48.826503,2.309275
221038698,Mahatma Gandhi,48.876356,2.264205
82381710,Batignolles - Rome,48.881823,2.320259
129145892,Paris - Désiré Préaux,48.857429,2.432305
102289046,Lourmel - Marie Skobtsov,48.844974,2.287283
124402232,Belleville - Télégraphe,48.875605,2.399555
27415327,Courcelles - Pierre Demours,48.88377,2.298585
1063404053,République - Danton,48.852492,2.462035
989753852,Square des Epinettes,48.893839,2.325954
82577019,Cité des Sciences et de l'Industrie,48.896596,2.384599
39256416,Pajol - Riquet ,48.8896,2.362853
255207155,Lassus - Delouvain,48.875504,2.389033
63769334,Emile Blemont - Poteau,48.894378,2.341512
129136818,Square du Carrefour de l'Insurrection,48.820865,2.291113
653080986,Toffier Decaux - Cartier Bresson,48.901651,2.401755
27415469,Orteaux - Mouraud,48.855586,2.408763
84979504,Provence - Chaussée d'Antin,48.874284,2.332977
653059015,Bellefond - Maubeuge,48.878255,2.345264
85120104,Pelleport - Belgrand,48.865001,2.403981
205047993,Edgar Quinet - Raspail,48.839403,2.329715
101748685,Place Etienne Pernet,48.842435,2.292182
54000608,Porte d'Aubervilliers,48.898597,2.368972
121025345,Chabrol - d'Hauteville,48.877018,2.351318
213692714,Lepic - Armée d'Orient,48.887536,2.334308
11218807773,Hôtel de Ville de Saint-Ouen,48.91138,2.334008
54000598,Mac-Mahon - Brey,48.877532,2.294513
2515976231,Nanterre - Université,48.901365,2.212693
66491394,Square Saint-Ambroise,48.860934,2.375841
102743096,Sadi Carnot - François Mitterrand ,48.875327,2.424162
126175087,Gabrielle Josserand - Edouard Vaillant,48.902716,2.393327
1057184567,Paul Signac - Aristide Briand,48.869503,2.450226
101746493,Théâtre - Lourmel,48.848207,2.289866
27363137,Hameau Fleuri - Marché,48.831449,2.24124
653050378,Square René Viviani - Montebello,48.851905,2.347842
82404497,Ledru-Rollin - Place du Père Chaillet,48.856434,2.379021
1968156458,Ecole Vétérinaire,48.814889,2.422436
991351798,Aubervilliers - Curial,48.890883,2.368858
7304,Bassano -  Iéna,48.868145,2.29615
43255030,Pereire - Ternes,48.87974,2.288012
1002738770,Lavandieres Sainte Opportune - Rivoli,48.85928,2.346622
15409531,Méchain - Faubourg Saint-Jacques,48.835868,2.33798
29327,Stade Auguste Delaune,48.808964,2.43452
36298,Jean-Baptiste Pigalle - La Bruyere,48.879398,2.333709
37903195,Transvaal - Charles de Gaulle ,48.84828,2.237342
102313219,Belliard - Damrémont,48.896692,2.338023
100906707,Boulets - Faubourg Saint-Antoine,48.849259,2.391755
624177860,Route de la Muette - Porte de Neuilly,48.879893,2.258767
27369223,Maine - Antoine Bourdelle,48.843085,2.320264
102336814,Kléber - Gouverneur Général Eboué,48.826886,2.272341
484423835,Président Wilson - Jean Jaures,48.890341,2.292068
54000618,Pyrénées - Maraîchers,48.85714,2.404351
653059879,Gare RER de Saint-Denis,48.935543,2.347149
210583589,Place Jacques Bonsergent,48.870948,2.361205
15291968,Place de Passy,48.857803,2.277501
15387809,Mozart - Jasmin,48.852861,2.268484
66491407,Haies - Réunion,48.853869,2.402426
221094844,Place Alphonse Deville,48.850188,2.327596
15397468,Maison de Radio - France,48.851329,2.277786
84966359,Naples - Rome,48.879961,2.321359
42908639,Lallier - Trudaine ,48.881092,2.340822
125469898,Square Léon,48.886674,2.353206
54000549,Villersexel - Saint-Germain,48.858297,2.323793
52329,Chernoviz - Raynouard,48.856986,2.282173
85162552,Fontainebleau - Edmond Michelet,48.809564,2.362691
54000586,Pernety - Raymond Losserand,48.834255,2.317609
2515738489,Eugène Reisz - Davout,48.856319,2.410397
256561528,Eugène Oudiné - Dessous Des Berges,48.825642,2.375023
452920451,Mont Valérien - Michel Salles,48.856192,2.215297
54000588,Gare Montparnasse - Vaugirard,48.841807,2.31951
1020700136,Neuve Saint-Pierre - Beautreillis,48.853554,2.363912
100855693,Sabot - Rennes,48.852575,2.331553
102304517,Pereire - Place de Wagram,48.887071,2.304111
128889359,Champ de Mars - Cler,48.856692,2.306647
210737808,Aqueduc - Villette,48.883886,2.367199
17526921983,Mairie de Sceaux,48.778917,2.288736
54000546,Sénat - Condé,48.849542,2.337939
912377361,Diderot - Reuilly,48.847208,2.386127
259977414,Palais des Sports,48.833469,2.285872
36473,Cadet - La Fayette,48.875602,2.34357
129101773,Caulaincourt - Place Constantin Pecqueur,48.889678,2.338179
256124192,Belleville - Pyrénées,48.874191,2.386004
100918666,Place Pasdeloup,48.862654,2.367033
1002059045,Pont Neuf - Rivoli,48.86009,2.344058
35137730,Hôpital Pitié Salpêtrière,48.837702,2.360495
54000545,Parc André Citroën,48.84064,2.278062
20636986665,Cloys - Ordener,48.893539,2.336443
82568336,Jeanne Hornet - Girardot,48.873803,2.42782
66491408,Calmette,48.881049,2.424993
18175885970,Porte Maillot - Perreire,48.878021,2.284237
17527065847,Chateau,48.774661,2.313588
17527110170,Stade Gaston Bouillant,48.939959,2.327957
75641607,Blaise-Desgoffe - Vaugirard,48.846129,2.324267
54000541,Vieille du Temple - Francs Bourgeois,48.858256,2.358218
1025995767,Hôtel de Ville de Champigny sur Marne,48.813811,2.509676
1034242363,Place François Mitterand,48.864928,2.442958
1021553839,Faubourg Poissonniere - Delta,48.882556,2.349748
1021176825,Billancourt - Général Leclerc ,48.832265,2.238041
335780498,Greneta - Sebastopol,48.865242,2.351667
54000611,Manin - Simon Bolivar,48.8765,2.379407
484387018,Place du Maquis du Vercors,48.877322,2.408378
1035816937,Poissonniers - Nord,48.892511,2.352223
544249939,Raspail - Chomel,48.852233,2.326658
1023083417,Station Paris Basketball - Ney - Charles Hermite,48.898748,2.364575
66507229,Reims - Porte d'Asnières,48.891834,2.300145
20636823021,Tourlaque - Damrémont,48.887913,2.332831
82432573,Porte d'Ivry,48.821769,2.368871
66491386,Surcouf - Université,48.861273,2.309454
54000539,Hôtel de Ville - Pont-Marie,48.8539,2.356947
452936197,Bois de Vincennes.,48.833806,2.413222
27415012,Bercy.,48.839967,2.378863
101490103,Saint-Jacques - Tombe Issoire,48.833206,2.336911
100872260,Duroc - Place de Breteuil,48.847461,2.312614
213848056,Parvis Corentin Celton,48.827473,2.278432
20431248994,Charles Robin - Grange aux Belles,48.877377,2.369846
653127524,Gustave Eiffel - Parc des Impressionnistes,48.903906,2.294691
263610599,Centenaire - Sorins,48.858535,2.427351
214134714,Gare Arcueil - Cachan,48.799824,2.328171
653066427,Franciade - Gabriel Péri,48.932615,2.355954
129089749,Brochant - Square des Batignolles ,48.888187,2.316861
82587428,Dupont de l'Eure - Gambetta,48.867939,2.400365
27415297,Square Raymond Souplex,48.891837,2.335426
13283986,Keller - La Roquette,48.855551,2.375278
20636530104,Dunkerque - Faubourg Saint-Denis,48.879591,2.357031
100910836,Parmentier - Fontaine au Roi,48.867877,2.372706
6515,Rougemont - Poissonnière,48.871612,2.345873
41523981,Mairie du 15ème,48.841776,2.298654
1034247348,Place des Larris,48.856836,2.478024
39536951,Vistule - Choisy,48.823655,2.361572
35089539,Manin - Crimée,48.883122,2.386367
27415169,Nationale - Marcel Duchamp,48.824637,2.367801
15412563,Square Desnouettes,48.834768,2.284142
30179848,Saint-Blaise - Mouraud,48.856962,2.408695
27363029,Charonne - Philippe-Auguste,48.855603,2.390546
484889494,Hôtel de Ville de Levallois Perret,48.893145,2.288882
54000607,Convention - Saint-Charles,48.843156,2.283109
36003,Pont de Lodi - Dauphine,48.855297,2.339947
27415215,Romain Rolland,48.820215,2.323414
263732151,Gambetta - Michelet,48.852738,2.429966
129161858,République - Henri Barbusse,48.906616,2.389432
653035822,Jeûneurs - Mulhouse,48.868997,2.346925
27415285,Place de Finlande,48.862408,2.311362
27363256,Thérèse - Opéra,48.866484,2.334433
100902274,Roquépine - Malesherbes,48.873451,2.320404
100770878,Poissy - Saint-Germain,48.849696,2.352969
75313725,Ferrus - Saint-Jacques,48.831388,2.340856
653069115,Claude Vellefaux - Sambre et Meuse,48.875022,2.370478
82419429,Faidherbe - Dahomey,48.851358,2.383823
349750111,Bleue - Trévise,48.875789,2.34729
52453,Le Vau - Maurice Bertaux,48.868034,2.411031
210389577,Daunou - Louis le Grand,48.869113,2.332515
1055553396,Mornay - Sully,48.849704,2.364461
210394523,Porte Saint-Martin,48.868602,2.355701
66505513,François 1er - Lincoln,48.869518,2.302426
15383032,Place du Canada,48.865346,2.310194
1056959071,Place Mireille Havet,48.850533,2.383756
486833337,Bachaumont - Montmartre,48.866174,2.344978
606669250,Square Georges Melies,48.840702,2.409668
17638171254,Charles de Gaulle - Louis Philippe,48.881742,2.271005
54001190,Mairie du 19ème,48.882563,2.381262
82569809,Jardin Marguerite Long,48.881699,2.283658
266052390,Melun - Jean Jaurès,48.88378,2.376477
37952191,Jean Jaurès - Reine,48.840096,2.239873
34300292,Argenson - Château,48.888559,2.2642
82554786,Place de l'Eglise - Pantin,48.892809,2.412435
268976295,Butte aux Cailles - Esperance,48.827588,2.349215
27415444,Louis Ganne - Davout,48.863387,2.409726
76488849,Fernand Braudel - Vincent Auriol ,48.836379,2.37234
460558111,Square du Bataclan,48.863376,2.371133
66491368,Sorbonne - Ecoles,48.849687,2.3435
15401095,Versailles - Claude Terrasse,48.840219,2.263834
1055541632,Place Tony de Graaff,48.818165,2.245811
54000561,Lamartine - Faubourg Montmartre,48.876614,2.339766
60667075,Georges V - François 1er,48.87034,2.30082
20824565291,Hippodrome de Paris Vincennes,48.820485,2.450281
20897904006,Pablo Picasso - Olympiades,48.855203,2.48724
84983562,Roquette - Folie Regnault,48.859247,2.386554
129081441,Vignes - Boulainvilliers,48.856399,2.27524
1056986761,Terroirs de France - Lheureux,48.83212,2.388618
82566934,Brochant - Clichy,48.89033,2.319731
35106544,René Coty - Parc Montsouris,48.824791,2.336125
267976590,François Truffaut - Saint Emilion,48.833724,2.386602
54000630,Madeleine Michelis - Roule,48.882604,2.277363
1599921040,Jessaint - Marx Dormoy,48.884845,2.35893
1056965116,Lac Daumesnil - Saint-Maurice,48.827746,2.418365
82573931,René Binet - Porte de Montmartre,48.899051,2.336553
82436057,Moulin de la Pointe,48.820929,2.356318
11851037297,Sèvres Rive Gauche,48.821443,2.215079
82448637,Suffren - Pérignon,48.847176,2.307052
271540743,Gare de Clichy-Levallois ,48.896798,2.298468
11851327865,Docteur Calmette - Martre,48.898969,2.308651
13372702,Saint-Fargeau - Mortier,48.872667,2.407913
1599931563,République - Auguste Perret,48.786953,2.351859
15411223,Dareau - Broussais,48.830776,2.33618
85152599,Le Corbusier - Jean Jaurès,48.837808,2.240838
478593396,Jean Moulin - Paul Doumer,48.862218,2.455334
213675430,Boutroux - Porte de Vitry,48.822632,2.377738
363735875,Pont De Charenton,48.817969,2.419953
284711589,Beaumarchais - Pas de la Mule,48.855581,2.368433
265266148,Pierre Brossolette - Adolphe Pinard,48.821772,2.313156
269953055,Quai Marcel Boyer - Victor Hugo,48.822556,2.39204
66491406,Cours de Vincennes - Davout,48.847238,2.410704
30550,Mairie du 9ème,48.873267,2.340753
20458224375,Vivienne - Petits Champs,48.867331,2.339144
20637420127,Monte Cristo - Bagnolet,48.856566,2.39727
43219958,Odessa - Départ,48.842886,2.324428
82590367,Place Marcel Sembat,48.833289,2.244175
213693126,Véron - Lepic,48.885261,2.33456
357491025,Place Centrale,48.787402,2.227883
457713145,Gare de Nanterre Ville,48.89503,2.195793
392576677,Senard - Charles Blum,48.857316,2.221092
52456,Pré Saint-Gervais - Lilas,48.877871,2.395907
1056995858,Gergovie - Vercingétorix,48.834534,2.313155
27414924,Sambre et Meuse - Villette,48.874406,2.373807
213695073,Hôpital Robert Debré,48.880052,2.400865
653217067,Jules Guesde - Laennec,48.87629,2.500694
365181481,Guy Môquet - Saint-Ouen,48.892778,2.327034
653076373,Bois de Vincennes - Porte Jaune,48.838751,2.460549
275968458,Place du Président Salvador Allende,48.897307,2.400792
213936755,Edouard Vaillant - Galliéni,48.858463,2.414795
128928526,Clapeyron - Moscou,48.880788,2.324815
287096529,Paul Klee - Place Augusta Holmes,48.838946,2.370424
13242682,Alexander Fleming - Belvédère,48.881791,2.40306
128884445,Constantine - Université,48.86068,2.314848
284708999,Santé - Arago,48.835077,2.341574
653079520,Averroès - Aimé Césaire,48.914053,2.412637
653076393,Place du Front Populaire - George Sand,48.906807,2.364541
129069108,Paul Barruel - Vaugirard,48.840149,2.304433
19161093714,Evariste Galois,48.873341,2.413354
20940948422,Versailles - Résistances,48.756959,2.388576
54000550,Rapp - Place du Général Gouraud,48.858103,2.300407
124390478,Commandant l'Herminier - Gallieni,48.847041,2.416045
1056979685,Bastille - Quai de la Rapée,48.846824,2.366936
97705710,Jacquard - Ternaux,48.864661,2.373162
1056972307,Pyramide - Parc Floral,48.837442,2.440452
1062812659,Auguste Blanqui - Glacière,48.831152,2.343822
15310509,Choron - Martyrs,48.877851,2.33967
1109534105,Demi-Lune - Aristide Briand,48.876264,2.456282
1057003116,Charles Lecocq - Lecourbe,48.84044,2.294867
285726279,Quai de Valmy,48.88127,2.368186
1057081237,Cimetière d'Issy-les-Moulineaux,48.8177,2.260931
7261,Athènes - Clichy,48.878114,2.32956
213685863,Parc Suzanne Lenglen,48.833251,2.27654
390075668,Stade Georges Carpentier,48.820482,2.366832
653079135,Mazagran - Pierre de Coubertin,48.816219,2.344227
38319086,Pierre Demours - Laugier,48.881307,2.294846
221032834,Metz - Faubourg Saint-Denis,48.870893,2.353521
653129435,Neuilly - Petit,48.898965,2.296279
129121741,Belleville - Couronnes,48.868831,2.380986
362178041,Place Jules Ferry,48.812108,2.325837
100783424,Censier - Santeuil,48.840659,2.353752
210584503,Gare de l'Est - Fidélité,48.874575,2.356796
292871105,Botzaris - Crimée,48.879597,2.388791
38280,Saint-Didier - Raymond Poincaré,48.866423,2.285863
653125838,Cours de l'Ile Seguin - Parc Billancourt,48.827141,2.234235
457834134,André Maurois - Joseph et Marie Hackin,48.877898,2.278959
20458486160,Sérurier - Alphonse Aulard,48.880529,2.398029
213686471,Eylau - Trocadéro,48.863354,2.286421
124622630,Pelée - Alphonse Baudin,48.860027,2.371054
54000593,Longchamp - Place d'Iéna,48.864917,2.292675
422639331,Mairie de Neuilly sur Seine,48.884947,2.267703
27362949,Louis Blanc - Jemmapes,48.879331,2.368449
1057061349,Chancé Milly - Cimetière Communal Sud,48.896872,2.303922
285454061,Square de la rue Pixérécourt,48.873682,2.396028
129142199,Marcel Yol - Jullien,48.825376,2.287235
129135654,Victor Cresson - Telles de la Poterie,48.822699,2.26865
214109662,Hôtel de ville de Fontenay-sous-Bois,48.849497,2.475016
302725495,Gare SNCF Vanves-Malakoff,48.819002,2.29215
653122771,Marc Sangnier - Division Leclerc,48.785997,2.329956
35147530,Pierre Levée - Fontaine Timbaud,48.866327,2.371116
1057179405,Résistance - Hoche,48.864273,2.435784
653135400,Paul Vaillant-Couturier - Gare RER,48.801082,2.402097
213689228,Raffet - Montmorency,48.852587,2.262925
129079313,Commerce - Letellier,48.847977,2.296625
409364001,Ivry - Simone Weil,48.823284,2.36591
1057039016,Fessart - Château,48.84245,2.23989
1057045129,Cimetière de Boulogne-Billancourt,48.830764,2.252024
1190800638,Ranelagh - Maison de la Radio,48.852936,2.28045
303102719,Brancion - Lefebvre,48.829002,2.301431
27363277,Place Saint-Ferdinand,48.878155,2.288518
303452950,Hôtel de Ville de Fontenay-aux-Roses,48.790845,2.287146
54000617,Docteurs Déjérine - Pte de Montreuil,48.853984,2.412083
653126035,Vanne - Saussaies,48.786404,2.338848
210745258,Jean-Pierre Timbaud - Vaucouleurs,48.867937,2.377885
19016646124,Vaugirard - Verrerie,48.820881,2.236722
308082350,Malakoff - Place de la Porte Maillot,48.876733,2.283458
653080383,Bruneseau - Quai d'Ivry,48.824946,2.388566
20636402451,Martignac - Grenelle,48.858278,2.318707
42499285,Petit Palais,48.866769,2.315766
37921892,Vinaigriers - Magenta,48.873117,2.359305
27363558,Wurtz - Tolbiac,48.826312,2.344586
653123610,Pierre Lefaucheux - Traversière,48.824352,2.241791
27269170,Quai aux Fleurs - Pont Saint-Louis,48.852916,2.352196
54000562,Square Alban Satragne,48.875388,2.355957
135806005,Mairie de Romainville,48.885109,2.435679
102326776,Jardin de l'Hospice Debrousse,48.861451,2.405686
653135378,Amaury Duval - Gabriel Péri,48.817188,2.323842
84958519,Arcole - Notre-Dame,48.853884,2.34938
54000553,Marignan - Champs-Elysées,48.869496,2.306614
34235349,Jean Calvin - Tournefort,48.841589,2.34849
18012983979,Gallieni - Lycée Charles Petitet,48.92764,2.330899
54000615,Buzenval - Avron,48.851617,2.401514
453172172,Porte d'Italie,48.817162,2.360236
478385490,Charles Gide - Fort de Bicêtre ,48.807194,2.353984
213706622,Vitruve - Davout,48.860532,2.409159
213686749,Place de la Porte de Passy,48.857341,2.264417
1057302263,Place Nationale - Château-des-Rentiers,48.829268,2.365212
42541542,Gare Montparnasse - Edgar Quinet,48.841488,2.323323
443402852,Place de Lévis,48.883547,2.313193
38192,La Motte-Picquet - Grenelle,48.848583,2.299348
1062162270,Théâtre de La Garenne,48.905658,2.234595
35101194,Place de l'Insurrection d'Août 1944 ,48.814779,2.398075
559980654,George V - Christophe Colomb,48.87046,2.30104
210751059,Hôpital - Campo-Formio,48.835405,2.358218
19331917084,Lycée Saint Exupéry - Juliette Savar,48.783022,2.463736
66491395,Daumesnil - Hébrard,48.8429,2.38474
404947652,Place Fernand Forest,48.849269,2.281863
458086607,Président Wilson - Baudin,48.898269,2.284934
653081846,Jourdan - Monticelli,48.822032,2.329095
213689815,Porte d'Asnières,48.890358,2.303629
443198808,Gaston Tessier - Rosa Parks RER,48.896377,2.374369
620676855,Camille Groult - Guy Môquet,48.787483,2.397673
6294,Marché aux fleurs,48.855258,2.347375
210738704,Mazagran - Bonne Nouvelle,48.870047,2.351125
82565383,Jacques Kellner - Saint-Ouen,48.895809,2.327897
102745622,Raspail - Albert Schweitzer,48.810315,2.343959
13191324,Assas - Luxembourg,48.843734,2.333428
213677219,Brillat-Savarin - Küss,48.822203,2.350422
85155919,Estienne d'Orves - Henri Ginoux,48.815388,2.320887
1062238429,Place de l'Europe - Quai de Bercy,48.825299,2.394568
102343591,Louis Pasteur - Albert Petit,48.796261,2.317289
7247,Charonne - Pierre Bayle,48.858445,2.390398
653134004,Louis Rolland - République,48.817109,2.319311
389788858,Emeriau - Beaugrenelle,48.847912,2.284306
1056947780,Faubourg Poissonnière - Dunkerque,48.880883,2.349934
38327,Victor Hugo - La Pompe,48.867952,2.281463
100925033,Gare de Lyon - Chalon,48.845666,2.374145
109609241,Colmar - Victor Hugo,48.886523,2.173961
82562496,Benjamin Delessert - Jean Lolive,48.89392,2.417982
235197110,Place de la Gare,48.802534,2.427504
417088374,Place Mongolfier,48.81516,2.459288
439750210,Italie - Jardin Joan Miro,48.819909,2.359295
476183970,Gare de l'Est - Place du 11 Novembre 1918,48.876327,2.358546
27415246,Javel - André Citroën,48.846276,2.278637
101491821,Jean Moulin - Place Victor et Hélène Basch,48.827649,2.326197
369011098,Paris - Laitières,48.846303,2.420755
1057319366,Quai de la Gare - Pont de Bercy,48.837308,2.374086
82375611,Batignolles - Beudant,48.882164,2.319853
102309973,Cimetière de Montmartre,48.886472,2.33289
653147618,Lucien Lanternier - Le Luth,48.931594,2.288978
19697757271,Conservatoire Marcel Dadi,48.79009,2.453597
417623119,Mairie de quartier du Plateau - Mont-Valérien,48.879993,2.207244
365886904,Berthier - Place Stuart Merril,48.885928,2.293345
653083263,Lucien Bossoutrot - Général Martial Vallin,48.836956,2.274107
85015750,Pergolèse - Malakoff,48.875211,2.284278
27064639,Vaugirard - Pasteur,48.840409,2.315437
102722579,Voltaire - Anatole France,48.891999,2.284263
39151458,Goutte d'or - Barbès,48.885124,2.349696
468354634,Quai de l'Oise - Aisne,48.890623,2.38337
213682190,Place Jacques et Thérèse Tréfouël,48.842726,2.312566
213692227,Square Louise Michel,48.884687,2.344139
653137566,Mairie de Clamart,48.800612,2.262151
213674686,Place Jeanne d'Arc,48.829575,2.369126
38522,Douai - Pierre Fontaine,48.882291,2.333241
488889101,Bessières - Porte de Clichy,48.896118,2.317909
42720305,Monceau - Malesherbes,48.879508,2.314546
266422568,Place Edmond Michelet,48.860135,2.350064
488872892,Emile Zola - Fondary,48.847051,2.295341
54000632,Paul Vaillant-Couturier - Victor Hugo,48.898197,2.293848
379063990,Place du 14 Juillet,48.819267,2.3012
210396518,Estrapade - Ulm,48.845128,2.345457
428088564,La Jarry - Place Diderot,48.849727,2.452014
221036108,Charonne - Bureau,48.854176,2.396093
82584215,Place Lafayette,48.829655,2.263868
1057730786,Halles - Bourdonnais,48.860449,2.346016
131094294,Charles Tillon - Cimetière Communal,48.91844,2.393563
494183852,La Motte-Picquet - La Tour Maubourg,48.856927,2.309622
491687415,Delizy - Louis Nadot,48.896213,2.409458
653083675,Maréchal Joffre - Verdun,48.85385,2.470307
653141822,Île de la Jatte,48.894036,2.266634
488980540,Saint-Mandé - Fabre d'Eglantine,48.845358,2.396502
653137567,Place Saint-Just,48.79038,2.389523
54000600,Toqueville - Cardinet,48.884902,2.310939
82455731,Cambronne - Villa Croix Nivert,48.845848,2.301757
15212034,Gérando - Rochechouart,48.882943,2.346485
1057399900,Placette Grégoire Collas,48.94342,2.248748
491932748,Porte des Lilas - Faidherbe,48.878619,2.412033
1057378487,Fort d'Aubervilliers,48.915024,2.403528
1057737444,Place Ginette Hamelin,48.837853,2.382064
911767210,Alexandre Parodi - Quai de Valmy,48.879359,2.366596
82336035,Saint-Germain - Ciseaux,48.853305,2.334465
255322397,Auguste Blanqui - Corvisart,48.830099,2.350273
1314450240,Gare du Stade,48.931268,2.260378
1057221951,Balzac - Olympes de Gouges,48.778503,2.400679
559595472,Suffren - Champ de Mars,48.854719,2.295217
129016495,Taitbout - La Fayette,48.87333,2.335263
16659964929,Arsène Houssaye - Friedland,48.874511,2.299472
1057335613,Quai du Président Roosevelt - Pont Aval,48.834388,2.265682
586649404,Conservatoire de Musique,48.770936,2.403401
54000599,Lemercier - Cardinet,48.890097,2.317378
20430917761,Place des Fêtes - Solitaires,48.876645,2.392033
210582231,Londres - Place d'Estienne d'Orves,48.876694,2.330536
312870435,Dunkerque - Trudaine,48.882152,2.346325
129106450,Joseph Dijon - Ornano,48.893745,2.347668
1057405802,Place Nelson Mandela,48.897874,2.218282
27414544,Place Monge,48.842762,2.352408
213894629,Square Denise Buisson,48.856232,2.426436
1057354004,Chemin de Bretagne,48.824753,2.258839
129059516,Picpus - Louis Braille,48.839989,2.400526
100923502,Crozatier - Faubourg Saint-Antoine,48.85044,2.378901
1227051850,Glacière - Soeur Catherine Marie,48.829523,2.34357
1057748427,Rottembourg - Général Michel Bizot,48.837878,2.404405
54000560,Geoffroy - Marie,48.873782,2.344514
36391,Godot de Mauroy - Madeleine,48.869789,2.326347
100933541,Vivaldi - Antoine-Julien Hénard,48.841924,2.389729
100934967,Madagascar - Meuniers,48.834605,2.397065
15309045,Marché Saint-Quentin,48.877356,2.354511
20490738387,Constant Coquelin - Invalides,48.848283,2.31575
1062783107,Buffon - Jardin des Plantes,48.842668,2.361859
653086121,Louis Xavier de Ricard - Ancienne Mairie,48.846299,2.47242
653139897,Lebrun - Colonel Fabien ,48.782669,2.381318
1015246367,Champs-Elysees - Bassano,48.871812,2.300239
101011685,Charenton - Prague,48.848175,2.376358
27415547,Square Etienne Jarousse,48.824852,2.292593
54000543,Cloître Saint-Merri - Renard,48.858835,2.351828
1057091571,Esplanade du Foncet - Camille Desmoulins,48.82709,2.260686
20491171604,Charentonneau - Maison Alfort,48.809972,2.443242
100769544,Harpe - Saint-Germain,48.851519,2.34367
1057765913,Hôpital Necker,48.846043,2.313245
1062704564,Bourg l'Abbé - Saint-Martin,48.863933,2.352406
1057234527,Gare d'Argenteuil,48.947022,2.256898
20491270292,Barrault - Place de Rungis,48.822659,2.346759
1057072168,Jules Guesdes - Général de Gaulle,48.819306,2.278934
1057366813,Hôtel de Ville de Sèvres,48.824364,2.213105
1056715831,Marché Saint-Germain,48.851656,2.3355
101742129,Cherche-Midi - Hôpital Necker,48.844611,2.317914
1057360420,Place Aimé Césaire,48.783195,2.242913
125811629,Leredde - Tolbiac,48.828876,2.374438
214119792,Gare RER - Malleret-Joinville,48.802936,2.42531
13912564,Bruant - Vincent Auriol,48.834848,2.366826
37504995,Jean Monnet - Iles,48.823394,2.249707
131908132,Parc Eli Lotar,48.91845,2.372709
49117995,Condorcet - Turgot,48.879852,2.345232
1057753858,Place Charles Michels,48.846401,2.28502
54000592,Balard - Montagne de la Fage,48.838507,2.278287
27359295,Benoît Frachon - République,48.852307,2.415605
81212212,Jean Jaurès - Jules Jacquemin,48.884331,2.40829
54000587,Mairie du 14ème,48.832546,2.325492
58311330,Place des Droits de l'Enfant,48.82748,2.331922
653087914,Marne - Charles de Gaulle,48.815072,2.412167
41219552,Saint-Benoît - Jacob,48.855451,2.333472
101738550,Didot - Place de Moro-Giafferi,48.8337,2.3215
54000622,Davout - Volga,48.85292,2.410523
82339935,Porte de la Muette,48.863023,2.268719
27414713,Landy - Heurtault,48.915097,2.375951
36151,Favart - Italiens,48.871446,2.33829
102307005,Villiers - Batignolles,48.881253,2.316538
20454506987,Pavé Grignon - Bretagne,48.757398,2.401247
54000564,Paradis - Hauteville,48.875,2.352276
27363337,Bréguet - Sabin,48.856932,2.370675
100967498,Stalingrad - Rigollots,48.849974,2.455576
6298,Gare du Nord - Saint-Vincent de Paul,48.880956,2.352431
20497547989,Place du Général Leclerc,48.765291,2.392657
43247025,Jardins d'Eole,48.88697,2.366849
19858721250,Université Paris Est Créteil,48.787714,2.446191
54000619,Porte de Bagnolet,48.864707,2.408345
101008598,Reuilly - Place Felix Eboue,48.840303,2.39463
75525462,Plantes - Moulin Vert,48.830058,2.32323
95845524,Cité Riverin - Château d'Eau,48.870702,2.35874
38407,Flandrin - Longchamp,48.868778,2.274355
82554449,Porte Molitor,48.845248,2.256902
39535340,Charles Frérot - Albert Guilpin,48.815584,2.350503
66491391,Claude Vellefaux - Hôpital Saint-Louis,48.872859,2.370072
54000570,Place de la Nation - Picpus,48.846822,2.400113
1062256852,Maxime Gorki - Louis Aragon,48.789098,2.368388
54000582,Edgar Quinet - Gaité,48.841161,2.324595
1057373549,Gare RER les Grésillons,48.919899,2.314585
653089942,Poissonniers - Championnet,48.895433,2.353018
201923447,Murat - Porte de Saint-Cloud,48.837509,2.257765
220504949,Grande Truanderie - Saint-Denis,48.86263,2.349808
41464928,Sèvres - Lecourbe,48.844768,2.311009
27296946,Square Claude Bernard,48.89876,2.375326
653143563,Henri Ravera - Gabriel Péri,48.797223,2.302116
15308712,Jules Vallès - Charonne,48.854284,2.384767
15462861,Crevaux - Bugeaud,48.870809,2.281149
1062797394,Place de la Madeleine - Royale,48.869228,2.324421
265201872,Bourdon - Pont Morland,48.84781,2.365936
82332239,Ecoles - Carmes,48.848904,2.347349
9931940126,Diane Arbus,48.898801,2.352402
443153677,Perle - Vieille du Temple,48.860135,2.361121
66505510,Epée de Bois - Mouffetard,48.841509,2.350067
1062245074,Roger Salengro - Général de Gaulle,48.820029,2.484676
1057758764,Cadix - Hameau,48.834011,2.289516
653144717,Camille Risch - Paul Armangot,48.774703,2.373685
42275164,Reuilly - Daumesnil,48.839539,2.397252
75345531,Turbigo - Française,48.863589,2.347779
82574198,Mairie d'Issy,48.823768,2.272311
66491379,Place des Abbesses,48.884543,2.338687
35600927,Mairie du 16ème,48.863937,2.276595
100868590,Cité Vaneau,48.854221,2.319615
54000616,Pyrénées - Avron,48.853247,2.405871
66491381,Leibniz - Jean Dollfus,48.896328,2.33339
77773,Gare de Reuilly - Picpus,48.842674,2.397294
52518,Louis Lumière.,48.862162,2.411126
1062874070,Jourdan - Cité Universitaire,48.819897,2.339701
54000554,Gare Saint-Lazare - Stockholm,48.877127,2.322417
27415389,Gambetta - Père Lachaise,48.864296,2.398229
66491367,Beaubourg - Michel-le-Comte,48.862535,2.35431
1062802530,Niger - Soult,48.843699,2.410361
653091206,Porte de Clignancourt - Ney,48.899641,2.344321
49341735,Centquatre,48.889334,2.370785
15309674,Square Montholon,48.87662,2.345764
27414902,Louis Blanc - La Chapelle,48.884009,2.359934
49094984,Herschel - Observatoire,48.843424,2.337665
15463487,Pergolèse - Marbeau,48.873569,2.281513
210395439,Centre Georges Pompidou,48.861419,2.352581
39169029,Sorbier - Ménilmontant,48.868542,2.389772
66505516,Cordelières - Arago,48.835481,2.348572
30730,Place de la Nation - Charonne,48.848365,2.399762
20636665336,Italie - Tage,48.822283,2.35843
125623876,Phalsbourg - Villiers,48.882423,2.309045
2515672078,Petit - Georges Thill,48.886031,2.389575
35317080,Emile Reynaud - Porte de la Villette ,48.90099,2.388702
653146273,Chausson - Gabriel Péri,48.921891,2.295231
1062882947,Bargue -  Dutot,48.837884,2.308876
653091677,Place de l'Europe - Alfortville,48.789137,2.42848
35472299,Pyrénées - Plaine,48.850267,2.406282
338824395,Bourse du Travail,48.868977,2.362344
1062982815,Gare de Bellevue,48.81924,2.229531
1237624420,Maurice d'Ocagne - General Maudhuy,48.824143,2.315879
27415179,Sarrette - Général Leclerc,48.825031,2.326413
100760396,Turbigo - Réaumur,48.865574,2.35642
129152818,Place de la Fraternité,48.857164,2.422847
27313492,Petites Ecuries - Faubourg Saint-Denis,48.872871,2.354215
49498164,Mairie du 8ème,48.877932,2.318264
210585225,Dunkerque - Alsace,48.879355,2.358379
262607058,Charles de Gaulle - Plateau de Vanves,48.822331,2.298572
39626277,Lacuée - Lyon,48.849268,2.370459
1074095810,Maurice Payret-Dortail,48.87812,2.223363
128880156,Archives - Rivoli,48.857347,2.353977
27364642,Maine - Liancourt,48.835064,2.323731
266963426,Beaumarchais - Saint-Gilles,48.858038,2.367935
20636765333,Italie - Vistule,48.823439,2.358206
129023855,Parme - Clichy,48.881266,2.328197
128890772,Bosquet - Saint-Dominique,48.858652,2.303717
66489651,Louis le Grand - Italiens,48.870509,2.334054
1805255023,Sèvres - Général Leclerc,48.830122,2.231426
1057207064,Saint-Denis - Université,48.945634,2.36383
27415411,Frères Flavien - Porte des Lilas,48.878099,2.411046
210387163,Saint-Denis - Réaumur,48.866112,2.350779
653150828,Joffre - Aigle,48.904033,2.245096
443654970,Française - Etienne Marcel,48.864053,2.347587
15153595,Nationale - Vincent Auriol,48.832527,2.362354
471094898,Olivier de Serres - Leriche,48.834602,2.295748
1057290902,Cours de Vincennes - Soult,48.846919,2.410522
42341698,Cléry - Montmartre,48.867458,2.344521
653187900,Adolphe Lalyre - Armand Silvestre,48.904063,2.273416
128874528,Temple - Haudriettes,48.861637,2.356696
1062827573,Bézout - Général Leclerc,48.828848,2.328597
54000542,Blancs-Manteaux - Archives,48.859418,2.355947
27415512,Parc Roger Salengro,48.905304,2.310559
100759356,Montmartre - Etienne Marcel,48.865022,2.345068
1074142878,Hôtel de Ville de Chaville,48.808871,2.188134
213680246,Didot - Mariniers,48.826505,2.313136
54000465,Etienne Marcel - Montorgueil,48.864506,2.346196
1074060095,Lally-Tollendal - Armand Carrel,48.882701,2.374718
80419347,Lagny - Auguste Blanqui,48.849226,2.42186
1063000561,Gardenat-Lapostol - Velettes,48.87387,2.224185
11874261013,Place du 17 Octobre,48.919627,2.297829
213680553,Adolphe Pinard - Victor Hugo,48.823683,2.307784
1063012692,Kléber - National,48.906334,2.239391
54000538,Mairie du 3ème,48.864462,2.361763
331153695,Square Emile - Chautemps,48.867434,2.353636
20637435296,Haxo - Darcy,48.870493,2.404957
96608796,Fille du Calvaire - Turenne,48.862105,2.36496
653094517,Cesaria Evora - Rosa Parks,48.897177,2.374517
129029327,Victoire - Laffitte,48.875144,2.338119
1063971944,Saint-Michel - Luxembourg,48.845015,2.339494
1064000778,Gare d'Austerlitz - Pont Charles de Gaulle,48.84232,2.36703
66499894,Sainte-Elisabeth - Turbigo,48.866103,2.359649
82379648,Lisbonne - Monceau,48.877456,2.309694
66491371,Pierre Sarrazin - Saint-Michel,48.850908,2.342131
1063429705,Eugène Varlin - Place de la Paix,48.792862,2.363093
1062833975,Froidevaux - Boulard,48.835147,2.329441
58391194,Tiron - Rivoli,48.855692,2.357906
2515756572,Verdier - Jean Jaurès,48.81614,2.312356
1063410400,Alouettes - Maréchal de Lattre de Tassigny,48.85511,2.49307
80298493,Mairie du Kremlin-Bicêtre,48.81192,2.357019
98132679,Jean Bleuzen - Square du 11 Novembre,48.823258,2.296521
478250062,Rivoli - Musée du Louvre,48.863646,2.334096
48800374,Place de l'Hôtel de Ville,48.857331,2.351458
1063044618,Bas - Gabriel Péri,48.915856,2.29481
11908510683,Séminaire de Conflans - Liberté,48.823194,2.404179
1063421211,Barbès - Monique Maunoury,48.815527,2.368717
1074333296,Hippodrome Paris-Vincennes,48.820484,2.446271
54000537,Saint-Gilles - Turenne,48.858159,2.364715
11908496227,Gardenat Lapostol - Franklin Roosevelt,48.871839,2.222505
49423507,Pau Casals - Neuve Tolbiac,48.83116,2.37744
128834707,Jean-Jacques Rousseau - Deux Ecus,48.862978,2.341464
653097126,Place Paul Delouvrier,48.891976,2.385129
391845823,Candale - Mehul,48.889394,2.41438
653140345,Édouard Vaillant - Place Jean Jaurès,48.862655,2.208904
15290700,Aboukir - Alexandrie,48.868683,2.350204
78374110,Square Pierre Lazareff,48.867142,2.348393
6352,Saint-Bon - Rivoli,48.858,2.350217
129083553,Porte de Saint Cloud - Parc des Princes,48.838663,2.252516
1074204954,Quai Jules Guesde - Saint-Simon,48.803915,2.408966
380891087,Place de la Bastille - Bourdon,48.852364,2.368109
19495456684,Commandant Schloesing - Pétrarque,48.861773,2.283884
27206194,Saint-Jacques - Val de Grâce,48.841751,2.341389
128878135,Village Saint-Paul,48.85264,2.36073
1063984816,Gare du Nord - La Chapelle,48.884178,2.356106
569583918,Choiseul - Quatre Septembre,48.869936,2.335998
1396728955,Bastille - Beaumarchais,48.853833,2.36857
2515885093,Waldeck Rochet - Germaine Tillon,48.91106,2.36763
653072212,Place du 8 mai 1945.,48.938882,2.356624
54001189,Chaussée d'Antin - Haussmann,48.87243,2.33359
653153519,Gare des Vallées,48.913179,2.257726
276989966,Oratoire - Rivoli,48.861343,2.340005
1063053136,Square Victor Basch,48.914305,2.228916
210386007,Alger - Rivoli,48.864774,2.329449
6293,Mairie du 2ème,48.867219,2.340463
128843085,Place du Lieutenant Henri Karcher,48.863491,2.340067
1063027377,Grande Rue - Europe,48.82181,2.20588
15433394,Custine - Ramey,48.888736,2.346953
653085678,Berthier - Porte de Clichy,48.894223,2.312587
6245,Ventadour - Opéra,48.866811,2.334388
18013122841,Port - Confluence,48.936094,2.343617
27414358,Saint-Honoré - 29 juillet,48.865571,2.330567
101751231,Saint-Amand - Labrouste,48.834097,2.308768
18013073681,Gare de Sèvres - Ville d'Avray,48.826262,2.200152
17174675707,Saint Pères - Saint Germain,48.85373,2.330018
39169877,Saint-Placide - Cherche Midi,48.849054,2.325318
653155159,Marx Dormoy - Château Sainte-Barbe,48.791782,2.297857
653099465,Amédée Huon - Fort d'Ivry,48.805131,2.38849
323468705,Saint-Honoré - Musée du Louvre,48.863443,2.334878
1810975577,Guy Môquet - Parvis Georges Marchais,48.795188,2.359435
17364714962,Marseillaise - Grenade,48.889371,2.39794
17364417797,Decrès - Alésia,48.8322,2.313907
35380305,Le Goff - Gay-Lussac,48.846102,2.341221
54000596,Jouffroy d'Abbans - Villiers,48.884216,2.305653
17486828694,Charlot - Stade Gabriel Voisin,48.827228,2.268123
19941915381,Gare RER - Canadiens,48.819659,2.464408
1074339090,Stade Pershing,48.829108,2.458354
18013135935,Nicolaï - Charenton,48.835479,2.392895
653040243,Archives - Pastourelle,48.862362,2.359504
1063061372,Résistance - Parmentier,48.859651,2.436705
2705356759,Jean Jaurès - Paul Lafargue,48.884933,2.248449
214019379,Quai de l'Aisne - Général Leclerc,48.895713,2.400571
82574979,Arthur Ranc - Hôpital Bichat,48.897871,2.333522
2705290225,Suresnes - Muette à Neuilly,48.86857,2.266001
1074410417,Verdun - Carnot,48.808439,2.373795
1074352578,Parc Floral du Bel Air,48.839286,2.43856
653156540,Place de la Division Leclerc,48.793825,2.273114
54000573,Cardinal Lavigerie,48.832934,2.402637
1981490798,Belfort - Victor Hugo,48.901849,2.317272
129080400,Belles Feuilles - Place de Mexico,48.865805,2.282921
18013112116,Porte Dauphine,48.871139,2.274978
1074428106,André Theuriet - Blagis,48.779773,2.313053
653102462,Lampes,48.811525,2.401793
16816575934,Henri Barbusse - Marcel Cachin,48.937421,2.372037
1057210479,Jules Guesdes - Carnot,48.938282,2.350899
2705338817,Victor Hugo - Gare,48.923134,2.260097
210328645,Place André Malraux,48.863925,2.335623
311153993,Les Halles - Saint-Eustache,48.863627,2.342624
99886640,Place des Victoires,48.866035,2.342033
6297,Victor Massé - Jean-Baptiste Pigalle,48.881104,2.336696
632086890,Place de l'Eglise - Vitry-sur-Seine,48.791923,2.395058
208603342,Coquillière - Louvre,48.863796,2.342574
653092274,Porte de Pantin.,48.8892,2.395018
66491366,Saint-Marc - Feydeau,48.870327,2.341872
27414527,Danielle Casanova - Opéra,48.867643,2.333389
1599896463,Magenta - Chabrol,48.876495,2.356099
100790494,Bréa - Raspail,48.842738,2.329794
210408693,Vaugirard - Monsieur le Prince,48.848951,2.341133
12225158518,Henri Barbusse - Gabriel Péri,48.801774,2.287417
49424560,Saint-Mande - Picpus,48.845128,2.401569
653165196,Les Blagis,48.785205,2.302526
11146696292,Victor Hugo - Paul Eluard,48.819603,2.411432
11146714746,Blanqui - Docteur Bauer,48.907735,2.340719
1074390359,Youri Gagarine - Commune de Paris,48.782427,2.393973
653159330,Quai de Sèvres - Manufacture Nationale,48.828688,2.22499
653110858,Silly - Louis Blériot,48.83219,2.23402
653107480,Paganini - Davout,48.85135,2.412021
1988517250,Stalingrad - Henri Luisette,48.783631,2.366936
653166892,Gare de Robinson,48.779926,2.281829
653104215,Sorbier - Gasnier-Guy,48.865218,2.39366
653106960,Gare RER - Maurice Grandcoing,48.813881,2.392429
82468690,Dutot - Place Alleray,48.836826,2.30717
16899499876,Jardin Modèle - Pierre Boudou,48.914867,2.305701
74864208,Bagnolet - Place Saint-Blaise,48.85973,2.40334
2002864789,Strasbourg - Saint-Denis,48.869602,2.354291
1074398925,République - Louis Loucheur,48.823549,2.510187
567884788,Vincent Auriol - Louise Weiss,48.834002,2.370389
99950133,André Mazet - Saint-André des Arts,48.853756,2.339096
17721073284,Mairie,48.879143,2.416335
16899518505,Mariotte - Batignolles,48.884572,2.32147
17729456391,Londres - Europe,48.878619,2.324816
1057203651,Stade de France - Francis de Pressensé,48.919142,2.362066
39565873,Jouffroy d'Abbans - Malesherbes,48.885013,2.307072
18013132487,Charenton - Wattignies,48.836919,2.391678
12225289563,Béranger - Félix Faure,48.804048,2.284826
12196660096,Bichat - Grange aux Belles,48.873688,2.365015
16898865154,Stéphanie Bouvard - Gambetta,48.814548,2.402439
76352106,Saint-Augustin,48.876201,2.319786
2515701705,Mûriers - Père Lachaise,48.864131,2.39165
27363206,Riquet - Marx Dormoy,48.89021,2.360176
17869323774,Chastenet de Géry - Marcel Paul,48.800123,2.356736
15550433574,Martyrs de Châteaubriant - Jean Grandel,48.951432,2.211214
486750405,Ney - Porte de Montmartre,48.897918,2.336487
11438171152,Place Charles de Gaulle,48.826073,2.189449
10773448319,Clef des Champs - Albert Dhalenne,48.914938,2.330665
16529895896,Gare - Aristide Briand,48.821411,2.255595
102339791,Place du Maréchal de Lattre de Tassigny,48.821708,2.285343
52474,Belleville -  Pré Saint-Gervais,48.875566,2.393046
101015227,Chevaleret - Louise Weiss,48.832587,2.371211
11218473640,Bons Raisins - Voltaire,48.872825,2.194716
125370566,Manin - Secrétan,48.879167,2.378796
66491396,Château de Vincennes,48.844232,2.43921
102328355,Place Denfert-Rochereau,48.843253,2.245988
54000578,Bobillot - Tolbiac,48.825596,2.350204
39599631,François Ponsard - La Muette,48.858367,2.274452
102724418,Général Leclerc - Bièvre,48.782414,2.31667
653184632,Edith Cavell - Volta,48.901617,2.269354
74805344,Pierre Charron - Champs-Elysées,48.870103,2.30435
653222953,Mairie de Rosny-sous-Bois,48.871257,2.486581
653110492,Danielle Casanova - Ledru-Rollin,48.815783,2.38326
84960402,Gobelins - Port-Royal,48.837136,2.35152
16529911795,Porte de Versailles,48.832324,2.287562
42950428,Place du Docteur Yersin,48.820105,2.372558
653193536,Maxime Gorki - Paul Vaillant-Couturier,48.796735,2.368334
54000589,Cambronne - Mademoiselle,48.843277,2.302308
74692052,Francoeur - Caulaincourt,48.889994,2.34253
35080917,Euryale Dehaynin - Loire,48.886249,2.377459
101759167,Lecourbe - Convention,48.839233,2.29152
653114003,Dôme - République,48.832681,2.250257
89553051,Pyrénées - Cours de Vincennes,48.847797,2.406172
54000591,Franquet - Labrouste,48.832877,2.306763
37420,Hauteville - Bonne Nouvelle,48.870774,2.34965
7402,Roquette - Auguste Laurent,48.858002,2.381798
75352635,Place de la vache noire,48.810405,2.32706
34836174,Place Charles Digeon,48.843542,2.418427
6354,Gouthière - Poterne des Peupliers,48.820507,2.351342
102287315,Félix Faure - Convention,48.841249,2.288387
39776330,Buzenval - Vignoles,48.853858,2.400004
27415194,Gergovie - Alésia,48.830887,2.318882
653114443,Place Eustache Deschamps,48.793855,2.336637
653190196,LCL Campus - Place Oscar Niemeyer,48.805342,2.363984
27363156,Général De Gaulle - Vivien,48.836074,2.418917
16206842336,Moscou - Edouard Vaillant,48.907558,2.468984
66491409,Guillaume Tell - Parc Henri Barbusse,48.889589,2.419886
82583924,Pyrénées - Charles Renouvier,48.860959,2.400422
124183944,Hector Malot - Daumesnil,48.846936,2.377088
27363389,Bercy - Traversiére,48.846193,2.37038
66491373,Pierre Joseph Desault,48.821102,2.378775
27363058,Suffren - La Motte-Piquet,48.850881,2.30122
37995,Dom-Pérignon - Gravelle,48.825482,2.40988
82396562,Mairie du 10ème,48.872089,2.357583
82429586,Duméril - Jeanne d'Arc,48.838152,2.357108
19989456853,Sydney Bechet - Jacques Gautier,48.844373,2.188248
35263507,Port Royal - Hôpital Cochin,48.838608,2.340699
100921894,Léon Frot - Charonne,48.854964,2.387217
102751453,Hôtel de Ville de Vincennes,48.848276,2.439896
27399547,Dominique Pado - Croix Nivert,48.836488,2.289725
54000610,Jean de la Fontaine - Boulainvilliers,48.852648,2.275866
101022698,Olympiades,48.826765,2.365086
102748267,Montreuil - République,48.850263,2.43452
54000583,Tombe Issoire - René Coty,48.830513,2.334361
74858883,Pereire - Saussure,48.888229,2.31013
63279,Siam - La Pompe,48.86172,2.275347
125918662,Marcadet - Ramey,48.890875,2.344902
15163771,George Sand - Jean de La Fontaine,48.849869,2.268257
82571023,Alexandre Dumas - Place de la Réunion,48.855337,2.39977
82335295,Saint-Séverin - Saint-Michel,48.852731,2.344093
27363205,Porte de la Plaine,48.828052,2.292428
653197206,Marcel Pourtout - Édouard Manet ,48.875556,2.165597
27415256,Sahel - Général Michel Bizot,48.840873,2.404444
6497,Duhamel - André Gide,48.836566,2.312707
653118283,Ancienne Mairie - André Morizet,48.838311,2.234077
124167835,Lavoisier - Missak Manouchian,48.862865,2.495676
66491384,Place Aristide Briand,48.821892,2.413004
27415371,Charonne - Alexandre Dumas,48.856077,2.394869
16206691682,Général Leclerc - République,48.915885,2.268231
49829553,Legendre - Nollet,48.887742,2.320293
102752610,Mairie de Bagnolet,48.868421,2.417959
37848502,Pierre Brossolette - 12 Février 1934,48.817696,2.307612
58086242,Square des Amandiers,48.866156,2.389132
82440673,Maine - Jean Zay,48.837925,2.322543
16931052467,Jean Jaurès - Place de la Libération,48.906178,2.439146
101488317,René Coty - Place Denfert-Rochereau,48.833056,2.332941
28233012,Marceau - Président Wilson,48.865236,2.300251
54000624,Gambetta - Tourelles,48.875338,2.405992
19867354582,Verdun - Carnot,48.883815,2.440266
54000552,Rome - Provence,48.87423,2.32557
16930981813,Gabriel Péri - Place de la Libération,48.819828,2.311736
66491382,Guy Môquet - Compoint,48.892136,2.323219
39882420,Championnet.,48.895364,2.349817
54000547,Quatre Vents - Carrefour de l'Odéon,48.851751,2.338162
27415360,Reynaldo Hahn - Lagny,48.849266,2.41233
82588494,Verdier - République,48.815404,2.317394
54000568,Philippe-Auguste,48.851853,2.393295
82425449,Bois de Vincennes - Polygone,48.835445,2.431421
7234,Colonel Pierre Avia,48.829684,2.275343
82551956,Marché d'Auteuil,48.848428,2.265254
85160045,Arthur Auger - Jean Jaurès,48.813736,2.306928
35816213,Passy - Place du Costa Rica,48.858489,2.283966
653190279,Jean-Baptiste Charcot - Sainte-Geneviève,48.903109,2.278893
99840124,Regard - Rennes,48.847385,2.326856
39311270,Pasteur - Cotentin,48.838928,2.316356
82413301,Ménilmontant - Oberkampf,48.866618,2.383013
80077998,Lorraine - Jean Jaurès,48.886387,2.382577
13248144,Volontaires - Vaugirard,48.841321,2.308089
82408364,Guillaume Bertrand - République,48.863825,2.380906
66491372,M.- A. Lagroua Weill-Hallé -  F. Dolto,48.828595,2.380221
54000631,Victor Hugo - Bineau,48.887582,2.278389
653121023,Fief - République,48.831709,2.255772
19867919889,De Gaulle - Moulin,48.885817,2.229608
653194214,Hôtel de Ville de Rueil-Malmaison,48.878194,2.181724
11375742,Arsonval - Falguière,48.8404,2.313118
27363397,Jean Bologne - Passy,48.857567,2.280027
39878420,Pyrénées - Dagorno,48.855426,2.405164
27415333,Crimée - Ourcq,48.894104,2.372946
76507850,Dantzig - Lefebvre,48.830139,2.295934
42588096,Bobillot - Moulin des Prés,48.828657,2.353021
101010226,Porte de Charenton,48.83124,2.398911
54000623,Mairie du 20ème,48.865302,2.399067
66491369,Montparnasse -  Square Ozanam,48.843311,2.326524
99798962,Place Saint-André des Arts,48.852886,2.342654
82588656,Rond-Point Rhin et Danube,48.840453,2.228023
35471668,Flandre - Ourcq,48.892602,2.379092
27415500,Point du Jour - Jean Jaurès,48.828753,2.245911
11580442,Geoffroy-Saint-Hilaire - Saint-Marcel,48.839078,2.356877
27414932,Saint-Maur - République,48.864186,2.378317
125881065,Metz - Marne,48.891163,2.386571
54000627,Bertrand Sincholle - Henri Barbusse,48.89926,2.304229
54000629,Commandant Charcot - Bretteville,48.875306,2.255846
27415128,Ivry - Baudricourt,48.824696,2.363106
84961467,Lacépède - Linné,48.843704,2.354651
27414937,Saint-Mandé - Docteur Arnold Netter,48.844626,2.404946
27363504,Jacquier - Didot,48.829533,2.318179
100227241,Guynemer - Jardin du Luxembourg,48.846613,2.332548
2254322638,Verdun - Pierre et Marie Curie,48.812822,2.370711
15377776,Paul Valery - Victor Hugo,48.871374,2.288713
70736110,Etienne Dolet - Place Maurice Chevalier,48.867983,2.385141
16210188070,Convention - Campus de Bobigny,48.91492,2.417224
129095489,Batignolles - Abel Truchet,48.883104,2.323835
66507230,Saint-Marcel - Hôpital,48.839504,2.360989
66491388,Alfred de Vigny - Place du Général Brocard,48.878361,2.305254
15189890802,Fontaine du Tertre - Calvaire,48.870254,2.218778
16043316164,Résistance - Romain Rolland,48.950873,2.231019
121160813,Place Tristan Bernard,48.879494,2.291542
15298647,Temple - Jean-Pierre Timbaud,48.864466,2.36606
27415083,Place d'Italie - Soeur Rosalie,48.831909,2.354694
311552027,Temple - Charlot,48.865709,2.365274
16043228469,Perrault - Place du Louvre,48.860274,2.341247
27415004,Général Michel Bizot - Claude Decaen,48.834813,2.400928
14623073464,Marcel Monge - Marcel Dassault,48.860964,2.224673
11063317380,Sèvres - Maréchal Juin,48.832431,2.229281
54000628,Claude Debussy - Marc Bloch,48.910388,2.311777
54000551,Galilée - Vernet,48.871716,2.298544
15187848239,Place Jean Mermoz,48.922094,2.271835
16043242148,Charles de Gaulle - Rue de l'Alma,48.896621,2.252313
13568870765,Place des Arts - Jean Mermoz,48.880391,2.183216
214097180,Paul Doumer - Stalingrad,48.806519,2.336888
17225742003,Louis Armand - Bernard Palissy,48.916974,2.313384
54000621,Ménilmontant - Père Lachaise,48.863287,2.386994
2515618216,Hippodrome de Longchamp,48.864132,2.239905
16965900639,Payenne - Square George Caïn,48.857833,2.362264
85123644,Pyrénées - Ménilmontant,48.869327,2.395085
17018170219,Pavé des Gardes - Charles Vaillant,48.811686,2.211182
11908488283,Georges Pompidou - Verdun,48.875481,2.232443
253357936,Félix Faure - Lourmel,48.838689,2.281808
42517412,Gambetta - Saint Fargeau,48.871245,2.403906
213699079,Macdonald - Césaria Evora,48.89883,2.37933
15066765479,Gare RER - Général de Gaulle,48.933548,2.306473
213676294,Chevaleret - Tolbiac,48.82941,2.375934
95073815,Saint-Lazare - Place d'Estienne d'Orves,48.876835,2.332907
17451132826,Epi d'Or - Chevilly,48.78111,2.354905
10647548670,Nungesser - Santé,48.852335,2.448967
10647608657,Dora Maar - Nadia Guendouz,48.905452,2.322041
16043282800,Port - Maurice Chevalier,48.832474,2.490258
54000555,Jean Mermoz - Champs-Elysées,48.86969,2.310732
100863462,Musée d'Orsay,48.859726,2.32586
76121343,Abbé Groult - Convention,48.835969,2.302064
17047102542,Ménil - Argenteuil,48.925902,2.27415
17450286381,Stalingrad - Barbara,48.809224,2.31759
16134135570,Stalingrad - Général de Gaulle,48.823451,2.496506
11266280626,Cartier Bresson - Denis Papin,48.902616,2.397814
27033125,Pierre Ginier - Clichy,48.886767,2.326228
213680917,Abbé Carton - Plantes,48.827674,2.320918
49039283,Carpeaux - Place Jacques Froment,48.890654,2.330943
35642049,Jemmapes - Ecluses Saint-Martin,48.877485,2.366007
17261310217,Saint-Germain - Verdun,48.882877,2.433187
11851012506,Jean Jaurès - Place du Dr Roux,48.927567,2.294734
2515774908,Val-Fleury,48.807671,2.240722
13341879803,Châteaudun - Place de la Liberté,48.909708,2.245449
15826185972,Faubourg St-Antoine - Place de la Nation,48.848773,2.393606
12943772652,Place Henri Dunant - Gare RER,48.788093,2.290923
16134083337,Maréchal Leclerc de Hauteclocque - Marché Buzenval,48.858446,2.192077
82423726,Gare de Lyon - Roland Barthes,48.843957,2.379088
12959947458,Parc des Pierrettes,48.797306,2.290997
12948189248,Guy Môquet - Jean Moulin,48.940932,2.363949
12806084887,Avenir,48.810344,2.300378
1074347188,Champs de Manoeuvre - Cartoucherie,48.835261,2.447974
84986959,Bastille - Biscornet,48.851356,2.36922
18815024485,Charles de Gaulle - Les Sablons,48.880988,2.271575
16379269732,Président Roosevelt - Rouget de Lisle,48.830475,2.261614
39149651,Richard Lenoir - Place de la Bastille,48.853833,2.369722
17451195211,Jean Bouin - Gouverneur Général Eboué,48.824793,2.26519
653065577,Gare du Nord - Demarquay,48.881154,2.358411
11851103861,Division Leclerc - Kléber,48.798666,2.283375
210581084,Gare Saint-Lazare - Place de Budapest,48.877753,2.327339
478732841,Sebastopol - Rambuteau,48.861818,2.350138
11438049493,Hélène et François Missoffe - Emile Borel,48.899907,2.321544
11437651826,Adrien Lesesne - Docteur Bauer,48.902639,2.348248
11438116799,Porte de Clichy - Place des Nations Unies,48.896737,2.310543
11437761399,Henri Barbusse - Bourguignons,48.913017,2.273421
11437961617,Marceau Delorme - Pierre Brossolette,48.912061,2.295897
11004720021,Garibaldi - Gabriel Péri,48.905742,2.331604
11437706131,Bateliers - Quai de Seine,48.915818,2.323953
13373758036,Roland Garros - Jean Bouin,48.809461,2.28532
13373801574,Gare RER,48.89628,2.458157
13373712848,Place de la Paix - Abbé Saint-Pierre,48.864627,2.204757
13373848216,Simone Signoret - Paris,48.903601,2.465407
101756482,Convention - Vaugirard,48.837677,2.295587
6295,Pontoise - La Tournelle,48.850458,2.352454
82402482,Gare de l'Est - Chateau Landon,48.879305,2.362424
129088667,Jonquière - Docteur Paul Brousse,48.8948,2.318705
54000604,Ordener - Poissonniers,48.891214,2.351289
43247738,Ruisseau - Ordener,48.892995,2.340145
102311820,Clignancourt - Ordener,48.891458,2.348636
213686196,Lauriston - Copernic,48.86926,2.289918
285001735,Vivienne - Montmartre,48.871348,2.341459
96512532,Joseph Sansboeuf - Saint Lazare,48.875316,2.322902
19183755581,Choisy - Pointe d'Ivry,48.822154,2.363371
18523643190,Gabriel Péri - Jules Ferry,48.926183,2.39123
1036199130,Les Juilliottes,48.804357,2.443482
27415466,Jourdain - Place des Grandes Rigoles,48.874031,2.389595
18908512040,Place De Fontenoy - Saxe,48.850271,2.306981
19697937136,Charles de Gaulle,48.885368,2.259562
18523627466,Suzanne Masson,48.923307,2.384729
82457375,Volontaires - Lecourbe,48.843514,2.306552
19183922057,Tolbiac - Boussingault,48.826178,2.342038
452341449,Choisy - Tolbiac,48.825912,2.360239
82499609,Convention - Lourmel,48.842055,2.285991
129042700,Granges aux Belles - Hôpital Saint-Louis,48.874795,2.366669
507934805,Ney - Porte de Clignancourt,48.897887,2.3458
18890164656,Square de Choisy - Eastman,48.828543,2.358308
907054879,Liberté - Vert-de-Maisons,48.790148,2.432863
18023659071,Place Farhat Hached,48.825487,2.381631
549480297,Halle Freyssinet - Parvis Alan Turing,48.832847,2.371142
19902592897,Les Planètes,48.809294,2.459627
653139063,Pont de Suresnes,48.867415,2.225895
66505511,François 1er - Montaigne,48.866888,2.306676
18206879942,Rampal - Belleville,48.873115,2.379841
18099679477,Saint-Jacques - Soufflot,48.84628,2.343079
368766689,Westermeyer - Paul Vaillant-Couturier,48.819116,2.396664
19183833298,Albert Kahn - Duhesme,48.895623,2.345815
21130527571,Semi-Marathon de Paris,48.845916,2.366961
653087180,Clichy - Douai,48.883688,2.328064
256403519,Place Pigalle,48.882756,2.336157
581480367,Fabre d'Eglantine - Place de la Nation,48.847112,2.39562
27415736,Jean Jaurès - Presles,48.907134,2.396006
121086415,Colisée - Champs-Elysées,48.870475,2.307619
1062742831,Place Joffre - Frédéric le Play,48.853754,2.304424
82417874,Alexandre Dumas - Voltaire,48.852889,2.389148
54000567,Montreuil - Voltaire,48.850507,2.393076
210573120,Hoche - Tilsitt,48.874836,2.297132
39202840,Rochechouart - Martyrs,48.882194,2.34055
653131074,Vanne - Général de Gaulle,48.815007,2.328318
129050965,Place de la République - Voltaire,48.866831,2.365481
74635382,Place de la Nation - Taillebourg,48.848841,2.397304
312165511,Faubourg Du Temple - Republique,48.867872,2.364898
478952881,Boulets - Voltaire,48.852187,2.38903
213999554,Jean Jaurès - Ouvrières Pivéreuses,48.910423,2.399577
30641281,Place de la Montagne du Goulet,48.844342,2.277384
442739463,Place de la République - Temple,48.867211,2.363546
100893610,Bourdonnais - Tour Eiffel,48.860898,2.2956
42907187,Richard Lenoir - Voltaire,48.861643,2.372749
213684314,Fédération - Suffren,48.852828,2.297878
19091372977,Mauroy - Cheminots,48.897715,2.357895
43165673,Belfort - Voltaire,48.856336,2.38299
476053320,Ecole Militaire - Place Joffre,48.85206,2.301799
66491390,Taitbout - Châteaudun,48.876384,2.335357
213687475,Traktir - Foch,48.872755,2.29155
128915891,Octave Gréard - Tour Eiffel,48.856503,2.293179
117480156,Enfants du Paradis - Peupliers,48.833123,2.257146
653042678,Quai de Béthune - Pont de la Tournelle,48.850974,2.356307
19184128113,Préfecture de Créteil,48.78368,2.454471
19186120360,Haut du Mont-Mesly,48.780192,2.468574
19186208004,Stade de la Habette,48.774397,2.466879
19186237098,Hôtel de Ville de Créteil,48.776995,2.455255
54000572,Diderot - Pierre Bourdan,48.847649,2.390258
384370499,Place Charles Vallin,48.835524,2.302599
19184196181,Créteil Pointe du Lac,48.769807,2.462303
54000634,Bineau - Louise Michel,48.886662,2.284327
70903158,Raymond Poincaré - Place Victor Hugo,48.870306,2.285075
54000571,Dugommier,48.838811,2.389658
1074187051,Hôtel de Ville d'Asnières sur Seine,48.909993,2.288238
20682017769,Pierre-Simon Girard  - Paris,48.901342,2.456019
19179850066,Centre Hospitalier Intercommunal de Créteil,48.797078,2.463801
19016711237,Place de la Gare,48.838514,2.186614
19130603957,Créteil Village,48.791224,2.46422
213987795,Wilson - Landy,48.915167,2.357633
653175838,Gare de Chaville Rive Gauche,48.80516,2.188277
19309244936,Créteil Pompadour,48.773012,2.435166
652120758,Place de la Porte de Châtillon,48.824247,2.318631
19130022694,Iles de Loisirs de Créteil,48.780258,2.445509
27415150,Bobillot - Paulin Mery,48.8299,2.354336
20635651817,Réaumur - Montmartre,48.867912,2.344872
18656691283,Yves Farges - Route d'Enghien,48.957568,2.28345
125542925,Louis Blanc - Aqueduc,48.88203,2.363562
2515686699,Borrégo - Gambetta,48.873305,2.401415
210749865,Port-Royal - Hôpital du Val-de-Grâce,48.837668,2.344814
7295,Chevreuse - Montparnasse,48.841739,2.331552
38060,Gare Montparnasse - Arrivée,48.843828,2.322581
284787594,Place d'Italie - Vincent Auriol,48.831482,2.356755
339797666,Charles de Gaulle - Jean Lolive,48.893264,2.412677
213945171,Noisy le Sec - Jean-Baptiste Clément,48.874515,2.415284
653205656,Gare de la Garenne-Colombes,48.909752,2.239145
20689987843,Vincennes - François Debergue,48.857498,2.437526
213683992,Cauchy - Cévennes,48.843373,2.275133
123095125,Alibert - Jemmapes,48.871044,2.366104
27415224,Bir Hakeim,48.853844,2.289705
27414460,Danielle Casanova - Place Vendôme,48.868266,2.330484
244498842,Bois de Vincennes - Gare,48.836022,2.470834
18795043822,Pailleron - Bouret,48.880517,2.37639
19335882998,Michelet - Dr Bauer,48.906125,2.344037
18749423187,Jean Jaurès - Gare de Clamart,48.81322,2.271677
2515636592,Mstislav Rostropovitch - Berthier,48.892121,2.309234
6296,Institut de France,48.857616,2.335831
82328045,Victoria - Place du Chatelet,48.857993,2.346917
207633746,Grande Armée - Brunel,48.876116,2.288124
20703011127,Dr Calmette,48.745457,2.408924
653046369,Carrefour Pleyel,48.920342,2.343854
1062807847,BNF - Bibliothèque Nationale de France,48.835027,2.376016
20699530917,Suresnes - Place du Souvenir Français,48.847008,2.19411
128882438,Institut du Monde Arabe - Saint-Germain,48.849063,2.355809
20702583198,Hôtel de Ville - Adrienne Bolland,48.90528,2.445544
20702946965,Quai de Seine - Pont de l'île-Saint-Denis,48.935421,2.340839
20431211740,Gaston Roussel - Commune de Paris,48.894441,2.432307
213952930,Proudhon - Président Wilson,48.906443,2.358491
20636596293,Buisson Saint-Louis - Saint-Maur,48.872274,2.373328
20703075041,Gare RER les Saules - Chandigarh,48.745654,2.416988
20690183551,Grilles - Honoré d'Estienne d'Orves,48.890439,2.406678
20702936749,Adrien Raynal - Verger,48.743386,2.40256
100798076,Danton - Serpente,48.852297,2.341413
20702544649,Avenue de la Paix - Chaillon,48.935291,2.326089
20699589412,Suisses - Colonel de Rochebrune,48.854407,2.19751
49791363,Balzac - Champs Elysées,48.8727,2.300195
20706822746,Chemin Des Mèches - Marc Seguin,48.784427,2.437089
20702781391,Louis Dain - Rosiers,48.904676,2.337954
129096696,Léon - Doudeauville,48.888324,2.353573
19331872653,Bleuets - Bordières,48.802118,2.454369
476155906,Saint-Antoine Sévigné,48.855022,2.361232
2515855808,Madeleine Vionnet,48.902519,2.37409
101761298,Place du Moulin de Javel,48.840217,2.271606
102335085,Aristide Briand - Place de la Résistance,48.821242,2.2511
20033972555,ZAC des Louvresses,48.943682,2.305786
20278271464,Place des Ardoines,48.782904,2.40695
437741660,Saint-Denis - Rivoli,48.859059,2.347694
452347778,Daumesnil - Picpus,48.837469,2.401765
20235746379,Square Bela Bartok,48.850984,2.284436
653073004,Tremblay - Lac des Minimes,48.834131,2.454752
394404659,Gare Saint-Lazare - Cour du Havre,48.875674,2.32656
20084863816,Arbalète - Claude Bernard,48.840009,2.347523
129026597,Caumartin - Provence,48.874423,2.328469
523900881,Cité de la Musique,48.888797,2.392581
126354477,Clichy - Place Blanche,48.883601,2.333224
315022587,Malesherbes - Place de la Madeleine,48.870406,2.323244
101013666,Bercy - Villot,48.841795,2.376785
34742973,Place Balard,48.836396,2.278419
19697809404,Matignon - Faubourg Saint-Honoré,48.871499,2.313896
